{"route_key":"MOB_AP1","direction":1,"company":"MOB","stops":[{"stop_id":"MOB_M23","stop_name":"青茂／白朗古","stop_name_tc":"青茂／白朗古","sequence":1,"company":"MOB","lat":22.213045,"lng":113.543707},{"stop_id":"MOB_M4/1","stop_name":"鄭觀應公立學校","stop_name_tc":"鄭觀應公立學校","sequence":2,"company":"MOB","lat":22.213705,"lng":113.544892},{"stop_id":"MOB_M1/18","stop_name":"關閘總站","stop_name_tc":"關閘總站","sequence":3,"company":"MOB","lat":22.214952,"lng":113.54863},{"stop_id":"MOB_M222/2","stop_name":"看台街","stop_name_tc":"看台街","sequence":4,"company":"MOB","lat":22.21324,"lng":113.550161},{"stop_id":"MOB_M244","stop_name":"中心街","stop_name_tc":"中心街","sequence":5,"company":"MOB","lat":22.212341,"lng":113.552123},{"stop_id":"MOB_M219","stop_name":"勞動節大馬路","stop_name_tc":"勞動節大馬路","sequence":6,"company":"MOB","lat":22.209673,"lng":113.555283},{"stop_id":"MOB_M50","stop_name":"勞動節大馬路／廣華","stop_name_tc":"勞動節大馬路／廣華","sequence":7,"company":"MOB","lat":22.207744,"lng":113.557576},{"stop_id":"MOB_M239/2","stop_name":"外港碼頭","stop_name_tc":"外港碼頭","sequence":8,"company":"MOB","lat":22.197458,"lng":113.557311},{"stop_id":"MOB_M254","stop_name":"友誼馬路／行車天橋","stop_name_tc":"友誼馬路／行車天橋","sequence":9,"company":"MOB","lat":22.194888,"lng":113.554912},{"stop_id":"MOB_T316","stop_name":"北安大馬路／新城區","stop_name_tc":"北安大馬路／新城區","sequence":10,"company":"MOB","lat":22.164569,"lng":113.568746},{"stop_id":"MOB_T345/2","stop_name":"氹仔客運碼頭","stop_name_tc":"氹仔客運碼頭","sequence":11,"company":"MOB","lat":22.163042,"lng":113.575923},{"stop_id":"MOB_T344","stop_name":"機場倉庫","stop_name_tc":"機場倉庫","sequence":12,"company":"MOB","lat":22.161705,"lng":113.57382},{"stop_id":"MOB_T356/2","stop_name":"澳門機場","stop_name_tc":"澳門機場","sequence":13,"company":"MOB","lat":22.157595,"lng":113.573806},{"stop_id":"MOB_T358","stop_name":"偉龍／科大醫院","stop_name_tc":"偉龍／科大醫院","sequence":14,"company":"MOB","lat":22.15464,"lng":113.567864},{"stop_id":"MOB_T373/1","stop_name":"偉龍／科技大學","stop_name_tc":"偉龍／科技大學","sequence":15,"company":"MOB","lat":22.152133,"lng":113.565207},{"stop_id":"MOB_T306","stop_name":"氹仔嘉樂庇馬路","stop_name_tc":"氹仔嘉樂庇馬路","sequence":16,"company":"MOB","lat":22.153167,"lng":113.562982},{"stop_id":"MOB_T314/2","stop_name":"信虹花園","stop_name_tc":"信虹花園","sequence":17,"company":"MOB","lat":22.156454,"lng":113.559784},{"stop_id":"MOB_T408/6","stop_name":"湖畔大廈","stop_name_tc":"湖畔大廈","sequence":18,"company":"MOB","lat":22.15899,"lng":113.561287},{"stop_id":"MOB_T343","stop_name":"海灣花園／海城閣","stop_name_tc":"海灣花園／海城閣","sequence":19,"company":"MOB","lat":22.162337,"lng":113.561419},{"stop_id":"MOB_M239/1","stop_name":"外港碼頭","stop_name_tc":"外港碼頭","sequence":20,"company":"MOB","lat":22.197457,"lng":113.557437},{"stop_id":"MOB_M254","stop_name":"友誼馬路／行車天橋","stop_name_tc":"友誼馬路／行車天橋","sequence":21,"company":"MOB","lat":22.194888,"lng":113.554912},{"stop_id":"MOB_M64","stop_name":"黑沙環新街／南華","stop_name_tc":"黑沙環新街／南華","sequence":22,"company":"MOB","lat":22.206273,"lng":113.557049},{"stop_id":"MOB_M235/2","stop_name":"東北大馬路／保利達","stop_name_tc":"東北大馬路／保利達","sequence":23,"company":"MOB","lat":22.209343,"lng":113.557313},{"stop_id":"MOB_M247","stop_name":"海上居","stop_name_tc":"海上居","sequence":24,"company":"MOB","lat":22.213282,"lng":113.55587},{"stop_id":"MOB_M9/1","stop_name":"關閘廣場","stop_name_tc":"關閘廣場","sequence":25,"company":"MOB","lat":22.215441,"lng":113.549847},{"stop_id":"MOB_M63","stop_name":"紀念孫中山公園","stop_name_tc":"紀念孫中山公園","sequence":26,"company":"MOB","lat":22.215309,"lng":113.545315},{"stop_id":"MOB_M67","stop_name":"青茂口岸","stop_name_tc":"青茂口岸","sequence":27,"company":"MOB","lat":22.213432,"lng":113.542962},{"stop_id":"MOB_M23","stop_name":"青茂／白朗古","stop_name_tc":"青茂／白朗古","sequence":28,"company":"MOB","lat":22.213045,"lng":113.543707}],"coords":[[22.213045,113.543707],[22.213705,113.544892],[22.214952,113.54863],[22.21324,113.550161],[22.212341,113.552123],[22.209673,113.555283],[22.207744,113.557576],[22.197458,113.557311],[22.194888,113.554912],[22.164569,113.568746],[22.163042,113.575923],[22.161705,113.57382],[22.157595,113.573806],[22.15464,113.567864],[22.152133,113.565207],[22.153167,113.562982],[22.156454,113.559784],[22.15899,113.561287],[22.162337,113.561419],[22.197457,113.557437],[22.194888,113.554912],[22.206273,113.557049],[22.209343,113.557313],[22.213282,113.55587],[22.215441,113.549847],[22.215309,113.545315],[22.213432,113.542962],[22.213045,113.543707]]}