{"route_key":"MOB_AP1","direction":1,"company":"MOB","stops":[{"stop_id":"MOB_11","stop_name":"Macau International Airport","stop_name_tc":"澳門國際機場","sequence":1,"company":"MOB","lat":22.15576,"lng":113.58076},{"stop_id":"MOB_10","stop_name":"Taipa Ferry Terminal","stop_name_tc":"氹仔客運碼頭","sequence":2,"company":"MOB","lat":22.15514,"lng":113.57881},{"stop_id":"MOB_07","stop_name":"Taipa Village","stop_name_tc":"氹仔舊城區","sequence":3,"company":"MOB","lat":22.15605,"lng":113.5541},{"stop_id":"MOB_03","stop_name":"Senado Square / São Domingos","stop_name_tc":"議事亭前地 / 板樟堂","sequence":4,"company":"MOB","lat":22.1935,"lng":113.54},{"stop_id":"MOB_15","stop_name":"Iao Hon Market","stop_name_tc":"祐漢街市","sequence":5,"company":"MOB","lat":22.2109,"lng":113.554},{"stop_id":"MOB_01","stop_name":"Border Gate Bus Terminus","stop_name_tc":"關閘總站","sequence":6,"company":"MOB","lat":22.2147,"lng":113.55015}],"coords":[[22.15576,113.58076],[22.15514,113.57881],[22.15605,113.5541],[22.1935,113.54],[22.2109,113.554],[22.2147,113.55015]]}