{"route_key":"MOB_7","direction":1,"company":"MOB","stops":[{"stop_id":"MOB_M2/2","stop_name":"東方明珠總站","stop_name_tc":"東方明珠總站","sequence":1,"company":"MOB","lat":22.210394,"lng":113.556979},{"stop_id":"MOB_M232","stop_name":"勞動節街／裕華","stop_name_tc":"勞動節街／裕華","sequence":2,"company":"MOB","lat":22.209526,"lng":113.554156},{"stop_id":"MOB_M246","stop_name":"永華街","stop_name_tc":"永華街","sequence":3,"company":"MOB","lat":22.210424,"lng":113.552546},{"stop_id":"MOB_M224","stop_name":"永康街／麗華","stop_name_tc":"永康街／麗華","sequence":4,"company":"MOB","lat":22.209964,"lng":113.551355},{"stop_id":"MOB_M33","stop_name":"俾利喇／望德樓","stop_name_tc":"俾利喇／望德樓","sequence":5,"company":"MOB","lat":22.207439,"lng":113.550948},{"stop_id":"MOB_M38","stop_name":"望賢樓","stop_name_tc":"望賢樓","sequence":6,"company":"MOB","lat":22.205784,"lng":113.549578},{"stop_id":"MOB_M103","stop_name":"聖方濟各老人院","stop_name_tc":"聖方濟各老人院","sequence":7,"company":"MOB","lat":22.204146,"lng":113.548223},{"stop_id":"MOB_M116","stop_name":"亞利鴉架街","stop_name_tc":"亞利鴉架街","sequence":8,"company":"MOB","lat":22.202281,"lng":113.545638},{"stop_id":"MOB_M81","stop_name":"歸僑總會","stop_name_tc":"歸僑總會","sequence":9,"company":"MOB","lat":22.200372,"lng":113.545211},{"stop_id":"MOB_M78","stop_name":"沙嘉都喇街","stop_name_tc":"沙嘉都喇街","sequence":10,"company":"MOB","lat":22.199467,"lng":113.546579},{"stop_id":"MOB_M270/2","stop_name":"塔石體育館","stop_name_tc":"塔石體育館","sequence":11,"company":"MOB","lat":22.196818,"lng":113.546598},{"stop_id":"MOB_M153","stop_name":"水坑尾／公共行政大樓","stop_name_tc":"水坑尾／公共行政大樓","sequence":12,"company":"MOB","lat":22.194048,"lng":113.543621},{"stop_id":"MOB_M173","stop_name":"約翰四世大馬路","stop_name_tc":"約翰四世大馬路","sequence":13,"company":"MOB","lat":22.191892,"lng":113.542863},{"stop_id":"MOB_M69/2","stop_name":"葡京酒店","stop_name_tc":"葡京酒店","sequence":14,"company":"MOB","lat":22.189337,"lng":113.544873},{"stop_id":"MOB_M262","stop_name":"城市日大馬路／波爾圖街","stop_name_tc":"城市日大馬路／波爾圖街","sequence":15,"company":"MOB","lat":22.187385,"lng":113.548701},{"stop_id":"MOB_M268","stop_name":"城市日前地","stop_name_tc":"城市日前地","sequence":16,"company":"MOB","lat":22.187246,"lng":113.547789},{"stop_id":"MOB_M263","stop_name":"仙德麗街","stop_name_tc":"仙德麗街","sequence":17,"company":"MOB","lat":22.189075,"lng":113.546095},{"stop_id":"MOB_M172/17","stop_name":"亞馬喇前地","stop_name_tc":"亞馬喇前地","sequence":18,"company":"MOB","lat":22.189028,"lng":113.543695},{"stop_id":"MOB_M261","stop_name":"約翰四世大馬路／馬統領街","stop_name_tc":"約翰四世大馬路／馬統領街","sequence":19,"company":"MOB","lat":22.191708,"lng":113.542404},{"stop_id":"MOB_M100","stop_name":"水坑尾／高可寧大宅","stop_name_tc":"水坑尾／高可寧大宅","sequence":20,"company":"MOB","lat":22.19435,"lng":113.543613},{"stop_id":"MOB_M75","stop_name":"高美士中葡中學","stop_name_tc":"高美士中葡中學","sequence":21,"company":"MOB","lat":22.198702,"lng":113.54771},{"stop_id":"MOB_M237","stop_name":"社會工作局","stop_name_tc":"社會工作局","sequence":22,"company":"MOB","lat":22.198007,"lng":113.544525},{"stop_id":"MOB_M245","stop_name":"鏡湖醫院","stop_name_tc":"鏡湖醫院","sequence":23,"company":"MOB","lat":22.199147,"lng":113.543259},{"stop_id":"MOB_M87","stop_name":"連勝馬路","stop_name_tc":"連勝馬路","sequence":24,"company":"MOB","lat":22.20134,"lng":113.544561},{"stop_id":"MOB_M96","stop_name":"連勝馬路／高士德","stop_name_tc":"連勝馬路／高士德","sequence":25,"company":"MOB","lat":22.20359,"lng":113.545025},{"stop_id":"MOB_M106","stop_name":"雅廉訪／聖心","stop_name_tc":"雅廉訪／聖心","sequence":26,"company":"MOB","lat":22.205317,"lng":113.545966},{"stop_id":"MOB_M274","stop_name":"筷子基衛生中心","stop_name_tc":"筷子基衛生中心","sequence":27,"company":"MOB","lat":22.207985,"lng":113.544704},{"stop_id":"MOB_M10","stop_name":"台山街市","stop_name_tc":"台山街市","sequence":28,"company":"MOB","lat":22.21048,"lng":113.546172},{"stop_id":"MOB_M27","stop_name":"關閘馬路／三角花園","stop_name_tc":"關閘馬路／三角花園","sequence":29,"company":"MOB","lat":22.210617,"lng":113.548546},{"stop_id":"MOB_M227","stop_name":"長壽大馬路／勝意樓","stop_name_tc":"長壽大馬路／勝意樓","sequence":30,"company":"MOB","lat":22.210645,"lng":113.55073},{"stop_id":"MOB_M220","stop_name":"祐漢街市","stop_name_tc":"祐漢街市","sequence":31,"company":"MOB","lat":22.211589,"lng":113.551946},{"stop_id":"MOB_M236","stop_name":"黑沙環中街／黑沙環衛生中心","stop_name_tc":"黑沙環中街／黑沙環衛生中心","sequence":32,"company":"MOB","lat":22.211727,"lng":113.554889},{"stop_id":"MOB_M2/2","stop_name":"東方明珠總站","stop_name_tc":"東方明珠總站","sequence":33,"company":"MOB","lat":22.210394,"lng":113.556979}],"coords":[[22.210394,113.556979],[22.209526,113.554156],[22.210424,113.552546],[22.209964,113.551355],[22.207439,113.550948],[22.205784,113.549578],[22.204146,113.548223],[22.202281,113.545638],[22.200372,113.545211],[22.199467,113.546579],[22.196818,113.546598],[22.194048,113.543621],[22.191892,113.542863],[22.189337,113.544873],[22.187385,113.548701],[22.187246,113.547789],[22.189075,113.546095],[22.189028,113.543695],[22.191708,113.542404],[22.19435,113.543613],[22.198702,113.54771],[22.198007,113.544525],[22.199147,113.543259],[22.20134,113.544561],[22.20359,113.545025],[22.205317,113.545966],[22.207985,113.544704],[22.21048,113.546172],[22.210617,113.548546],[22.210645,113.55073],[22.211589,113.551946],[22.211727,113.554889],[22.210394,113.556979]]}