{"route_key":"MOB_3A","direction":1,"company":"MOB","stops":[{"stop_id":"MOB_M138","stop_name":"司打口總站","stop_name_tc":"司打口總站","sequence":1,"company":"MOB","lat":22.193379,"lng":113.535132},{"stop_id":"MOB_M137/1","stop_name":"內港客運碼頭","stop_name_tc":"內港客運碼頭","sequence":2,"company":"MOB","lat":22.194447,"lng":113.535587},{"stop_id":"MOB_M135/2","stop_name":"新馬路／大豐","stop_name_tc":"新馬路／大豐","sequence":3,"company":"MOB","lat":22.194766,"lng":113.538349},{"stop_id":"MOB_M170/2","stop_name":"殷皇子馬路","stop_name_tc":"殷皇子馬路","sequence":4,"company":"MOB","lat":22.191507,"lng":113.541826},{"stop_id":"MOB_M172/9","stop_name":"亞馬喇前地","stop_name_tc":"亞馬喇前地","sequence":5,"company":"MOB","lat":22.189429,"lng":113.54321},{"stop_id":"MOB_M69/2","stop_name":"葡京酒店","stop_name_tc":"葡京酒店","sequence":6,"company":"MOB","lat":22.189337,"lng":113.544873},{"stop_id":"MOB_M159","stop_name":"總統酒店","stop_name_tc":"總統酒店","sequence":7,"company":"MOB","lat":22.190162,"lng":113.546928},{"stop_id":"MOB_M262","stop_name":"城市日大馬路／波爾圖街","stop_name_tc":"城市日大馬路／波爾圖街","sequence":8,"company":"MOB","lat":22.187385,"lng":113.548701},{"stop_id":"MOB_M259","stop_name":"孫逸仙大馬路／金沙","stop_name_tc":"孫逸仙大馬路／金沙","sequence":9,"company":"MOB","lat":22.189988,"lng":113.555669},{"stop_id":"MOB_M255","stop_name":"馬六甲街","stop_name_tc":"馬六甲街","sequence":10,"company":"MOB","lat":22.195474,"lng":113.554533},{"stop_id":"MOB_M239/1","stop_name":"外港碼頭","stop_name_tc":"外港碼頭","sequence":11,"company":"MOB","lat":22.197457,"lng":113.557437},{"stop_id":"MOB_M254","stop_name":"友誼馬路／行車天橋","stop_name_tc":"友誼馬路／行車天橋","sequence":12,"company":"MOB","lat":22.194888,"lng":113.554912},{"stop_id":"MOB_M64","stop_name":"黑沙環新街／南華","stop_name_tc":"黑沙環新街／南華","sequence":13,"company":"MOB","lat":22.206273,"lng":113.557049},{"stop_id":"MOB_M206","stop_name":"黑沙環新街／建華","stop_name_tc":"黑沙環新街／建華","sequence":14,"company":"MOB","lat":22.208484,"lng":113.554357},{"stop_id":"MOB_M226","stop_name":"勞動節街／中葡職業技術學校","stop_name_tc":"勞動節街／中葡職業技術學校","sequence":15,"company":"MOB","lat":22.209862,"lng":113.554152},{"stop_id":"MOB_M236","stop_name":"黑沙環中街／黑沙環衛生中心","stop_name_tc":"黑沙環中街／黑沙環衛生中心","sequence":16,"company":"MOB","lat":22.211727,"lng":113.554889},{"stop_id":"MOB_M1/4","stop_name":"關閘總站","stop_name_tc":"關閘總站","sequence":17,"company":"MOB","lat":22.214936,"lng":113.549281},{"stop_id":"MOB_M222/1","stop_name":"看台街","stop_name_tc":"看台街","sequence":18,"company":"MOB","lat":22.213257,"lng":113.55001},{"stop_id":"MOB_M220","stop_name":"祐漢街市","stop_name_tc":"祐漢街市","sequence":19,"company":"MOB","lat":22.211589,"lng":113.551946},{"stop_id":"MOB_M219","stop_name":"勞動節大馬路","stop_name_tc":"勞動節大馬路","sequence":20,"company":"MOB","lat":22.209673,"lng":113.555283},{"stop_id":"MOB_M51","stop_name":"東北大馬路／廣華","stop_name_tc":"東北大馬路／廣華","sequence":21,"company":"MOB","lat":22.207707,"lng":113.5562},{"stop_id":"MOB_M233","stop_name":"東北大馬路／東華","stop_name_tc":"東北大馬路／東華","sequence":22,"company":"MOB","lat":22.206741,"lng":113.555264},{"stop_id":"MOB_M48","stop_name":"慕拉士／飛通大廈","stop_name_tc":"慕拉士／飛通大廈","sequence":23,"company":"MOB","lat":22.205106,"lng":113.554533},{"stop_id":"MOB_M52","stop_name":"漁翁街／勞工事務局","stop_name_tc":"漁翁街／勞工事務局","sequence":24,"company":"MOB","lat":22.2048,"lng":113.559992},{"stop_id":"MOB_M239/2","stop_name":"外港碼頭","stop_name_tc":"外港碼頭","sequence":25,"company":"MOB","lat":22.197458,"lng":113.557311},{"stop_id":"MOB_M265","stop_name":"漁人碼頭會展中心","stop_name_tc":"漁人碼頭會展中心","sequence":26,"company":"MOB","lat":22.194307,"lng":113.555231},{"stop_id":"MOB_M264","stop_name":"勵庭海景酒店","stop_name_tc":"勵庭海景酒店","sequence":27,"company":"MOB","lat":22.189881,"lng":113.556722},{"stop_id":"MOB_M266","stop_name":"澳門科學館","stop_name_tc":"澳門科學館","sequence":28,"company":"MOB","lat":22.186987,"lng":113.556501},{"stop_id":"MOB_M257","stop_name":"新口岸／文化中心","stop_name_tc":"新口岸／文化中心","sequence":29,"company":"MOB","lat":22.18755,"lng":113.554242},{"stop_id":"MOB_M251","stop_name":"捐血中心","stop_name_tc":"捐血中心","sequence":30,"company":"MOB","lat":22.18888,"lng":113.550243},{"stop_id":"MOB_M263","stop_name":"仙德麗街","stop_name_tc":"仙德麗街","sequence":31,"company":"MOB","lat":22.189075,"lng":113.546095},{"stop_id":"MOB_M172/2","stop_name":"亞馬喇前地","stop_name_tc":"亞馬喇前地","sequence":32,"company":"MOB","lat":22.18937,"lng":113.543493},{"stop_id":"MOB_M171/1","stop_name":"中區／殷皇子馬路","stop_name_tc":"中區／殷皇子馬路","sequence":33,"company":"MOB","lat":22.191554,"lng":113.541447},{"stop_id":"MOB_M142","stop_name":"新馬路／金碧坊","stop_name_tc":"新馬路／金碧坊","sequence":34,"company":"MOB","lat":22.195659,"lng":113.537268},{"stop_id":"MOB_M136/1","stop_name":"粵通碼頭","stop_name_tc":"粵通碼頭","sequence":35,"company":"MOB","lat":22.195367,"lng":113.536226},{"stop_id":"MOB_M138","stop_name":"司打口總站","stop_name_tc":"司打口總站","sequence":36,"company":"MOB","lat":22.193379,"lng":113.535132}],"coords":[[22.193379,113.535132],[22.194447,113.535587],[22.194766,113.538349],[22.191507,113.541826],[22.189429,113.54321],[22.189337,113.544873],[22.190162,113.546928],[22.187385,113.548701],[22.189988,113.555669],[22.195474,113.554533],[22.197457,113.557437],[22.194888,113.554912],[22.206273,113.557049],[22.208484,113.554357],[22.209862,113.554152],[22.211727,113.554889],[22.214936,113.549281],[22.213257,113.55001],[22.211589,113.551946],[22.209673,113.555283],[22.207707,113.5562],[22.206741,113.555264],[22.205106,113.554533],[22.2048,113.559992],[22.197458,113.557311],[22.194307,113.555231],[22.189881,113.556722],[22.186987,113.556501],[22.18755,113.554242],[22.18888,113.550243],[22.189075,113.546095],[22.18937,113.543493],[22.191554,113.541447],[22.195659,113.537268],[22.195367,113.536226],[22.193379,113.535132]]}