{"route_key":"MOB_25AX","direction":1,"company":"MOB","stops":[{"stop_id":"MOB_M9/5","stop_name":"關閘廣場","stop_name_tc":"關閘廣場","sequence":1,"company":"MOB","lat":22.215235,"lng":113.549874},{"stop_id":"MOB_M50","stop_name":"勞動節大馬路／廣華","stop_name_tc":"勞動節大馬路／廣華","sequence":2,"company":"MOB","lat":22.207744,"lng":113.557576},{"stop_id":"MOB_M172/14","stop_name":"亞馬喇前地","stop_name_tc":"亞馬喇前地","sequence":3,"company":"MOB","lat":22.189125,"lng":113.543224},{"stop_id":"MOB_T403","stop_name":"史伯泰／麗景灣","stop_name_tc":"史伯泰／麗景灣","sequence":4,"company":"MOB","lat":22.162793,"lng":113.553639},{"stop_id":"MOB_T309","stop_name":"泉亮花園","stop_name_tc":"泉亮花園","sequence":5,"company":"MOB","lat":22.159099,"lng":113.558215},{"stop_id":"MOB_T375","stop_name":"連貫公路／新濠天地","stop_name_tc":"連貫公路／新濠天地","sequence":6,"company":"MOB","lat":22.149145,"lng":113.564046},{"stop_id":"MOB_T380","stop_name":"連貫公路／倫敦人","stop_name_tc":"連貫公路／倫敦人","sequence":7,"company":"MOB","lat":22.146179,"lng":113.563922},{"stop_id":"MOB_C690/2","stop_name":"蝴蝶谷大馬路總站","stop_name_tc":"蝴蝶谷大馬路總站","sequence":8,"company":"MOB","lat":22.1288,"lng":113.562313},{"stop_id":"MOB_C690/2","stop_name":"蝴蝶谷大馬路總站","stop_name_tc":"蝴蝶谷大馬路總站","sequence":9,"company":"MOB","lat":22.1288,"lng":113.562313},{"stop_id":"MOB_C689/2","stop_name":"和諧廣場／樂群樓","stop_name_tc":"和諧廣場／樂群樓","sequence":10,"company":"MOB","lat":22.129835,"lng":113.562823},{"stop_id":"MOB_T376/2","stop_name":"連貫公路／巴黎人","stop_name_tc":"連貫公路／巴黎人","sequence":11,"company":"MOB","lat":22.1448,"lng":113.563409},{"stop_id":"MOB_T363/2","stop_name":"連貫公路／威尼斯人","stop_name_tc":"連貫公路／威尼斯人","sequence":12,"company":"MOB","lat":22.149801,"lng":113.563653},{"stop_id":"MOB_T311/1","stop_name":"百利寶花園","stop_name_tc":"百利寶花園","sequence":13,"company":"MOB","lat":22.157869,"lng":113.559155},{"stop_id":"MOB_T308/1","stop_name":"氹仔電訊","stop_name_tc":"氹仔電訊","sequence":14,"company":"MOB","lat":22.160609,"lng":113.556578},{"stop_id":"MOB_M172/16","stop_name":"亞馬喇前地","stop_name_tc":"亞馬喇前地","sequence":15,"company":"MOB","lat":22.188914,"lng":113.543006},{"stop_id":"MOB_M64","stop_name":"黑沙環新街／南華","stop_name_tc":"黑沙環新街／南華","sequence":16,"company":"MOB","lat":22.206273,"lng":113.557049},{"stop_id":"MOB_M9/5","stop_name":"關閘廣場","stop_name_tc":"關閘廣場","sequence":17,"company":"MOB","lat":22.215235,"lng":113.549874}],"coords":[[22.215235,113.549874],[22.207744,113.557576],[22.189125,113.543224],[22.162793,113.553639],[22.159099,113.558215],[22.149145,113.564046],[22.146179,113.563922],[22.1288,113.562313],[22.1288,113.562313],[22.129835,113.562823],[22.1448,113.563409],[22.149801,113.563653],[22.157869,113.559155],[22.160609,113.556578],[22.188914,113.543006],[22.206273,113.557049],[22.215235,113.549874]]}