{"route_key":"MOB_10","direction":1,"company":"MOB","stops":[{"stop_id":"MOB_M1/2","stop_name":"關閘總站","stop_name_tc":"關閘總站","sequence":1,"company":"MOB","lat":22.215022,"lng":113.549293},{"stop_id":"MOB_M281","stop_name":"祐漢第一街","stop_name_tc":"祐漢第一街","sequence":2,"company":"MOB","lat":22.212199,"lng":113.549646},{"stop_id":"MOB_M29","stop_name":"慕拉士馬路","stop_name_tc":"慕拉士馬路","sequence":3,"company":"MOB","lat":22.208506,"lng":113.550282},{"stop_id":"MOB_M36","stop_name":"慕拉士巷","stop_name_tc":"慕拉士巷","sequence":4,"company":"MOB","lat":22.206678,"lng":113.552574},{"stop_id":"MOB_M48","stop_name":"慕拉士／飛通大廈","stop_name_tc":"慕拉士／飛通大廈","sequence":5,"company":"MOB","lat":22.205106,"lng":113.554533},{"stop_id":"MOB_M52","stop_name":"漁翁街／勞工事務局","stop_name_tc":"漁翁街／勞工事務局","sequence":6,"company":"MOB","lat":22.2048,"lng":113.559992},{"stop_id":"MOB_M239/2","stop_name":"外港碼頭","stop_name_tc":"外港碼頭","sequence":7,"company":"MOB","lat":22.197458,"lng":113.557311},{"stop_id":"MOB_M254","stop_name":"友誼馬路／行車天橋","stop_name_tc":"友誼馬路／行車天橋","sequence":8,"company":"MOB","lat":22.194888,"lng":113.554912},{"stop_id":"MOB_M241","stop_name":"金蓮花廣場","stop_name_tc":"金蓮花廣場","sequence":9,"company":"MOB","lat":22.194437,"lng":113.552902},{"stop_id":"MOB_M71","stop_name":"廈門街 ／澳門理工大學","stop_name_tc":"廈門街 ／澳門理工大學","sequence":10,"company":"MOB","lat":22.19308,"lng":113.551418},{"stop_id":"MOB_M155","stop_name":"東方拱門","stop_name_tc":"東方拱門","sequence":11,"company":"MOB","lat":22.193815,"lng":113.549825},{"stop_id":"MOB_M157","stop_name":"治安警察局","stop_name_tc":"治安警察局","sequence":12,"company":"MOB","lat":22.191823,"lng":113.546597},{"stop_id":"MOB_M173","stop_name":"約翰四世大馬路","stop_name_tc":"約翰四世大馬路","sequence":13,"company":"MOB","lat":22.191892,"lng":113.542863},{"stop_id":"MOB_M171/1","stop_name":"中區／殷皇子馬路","stop_name_tc":"中區／殷皇子馬路","sequence":14,"company":"MOB","lat":22.191554,"lng":113.541447},{"stop_id":"MOB_M142","stop_name":"新馬路／金碧坊","stop_name_tc":"新馬路／金碧坊","sequence":15,"company":"MOB","lat":22.195659,"lng":113.537268},{"stop_id":"MOB_M136/1","stop_name":"粵通碼頭","stop_name_tc":"粵通碼頭","sequence":16,"company":"MOB","lat":22.195367,"lng":113.536226},{"stop_id":"MOB_M139/2","stop_name":"司打口","stop_name_tc":"司打口","sequence":17,"company":"MOB","lat":22.193564,"lng":113.53536},{"stop_id":"MOB_M184","stop_name":"河邊新街／街市","stop_name_tc":"河邊新街／街市","sequence":18,"company":"MOB","lat":22.190398,"lng":113.533473},{"stop_id":"MOB_M188","stop_name":"河邊新街／下環","stop_name_tc":"河邊新街／下環","sequence":19,"company":"MOB","lat":22.188574,"lng":113.53219},{"stop_id":"MOB_M203/1","stop_name":"媽閣廟站","stop_name_tc":"媽閣廟站","sequence":20,"company":"MOB","lat":22.186988,"lng":113.531042},{"stop_id":"MOB_M3/4","stop_name":"媽閣交通樞紐","stop_name_tc":"媽閣交通樞紐","sequence":21,"company":"MOB","lat":22.183906,"lng":113.529907},{"stop_id":"MOB_M3/4","stop_name":"媽閣交通樞紐","stop_name_tc":"媽閣交通樞紐","sequence":22,"company":"MOB","lat":22.183906,"lng":113.529907},{"stop_id":"MOB_M198","stop_name":"西灣湖景大馬路／媽閣碼頭","stop_name_tc":"西灣湖景大馬路／媽閣碼頭","sequence":23,"company":"MOB","lat":22.184706,"lng":113.529042},{"stop_id":"MOB_M183/2","stop_name":"河邊新街／凱泉灣","stop_name_tc":"河邊新街／凱泉灣","sequence":24,"company":"MOB","lat":22.190589,"lng":113.533372},{"stop_id":"MOB_M140/2","stop_name":"河邊新街／李道巷","stop_name_tc":"河邊新街／李道巷","sequence":25,"company":"MOB","lat":22.192479,"lng":113.534596},{"stop_id":"MOB_M137/1","stop_name":"內港客運碼頭","stop_name_tc":"內港客運碼頭","sequence":26,"company":"MOB","lat":22.194447,"lng":113.535587},{"stop_id":"MOB_M135/2","stop_name":"新馬路／大豐","stop_name_tc":"新馬路／大豐","sequence":27,"company":"MOB","lat":22.194766,"lng":113.538349},{"stop_id":"MOB_M170/2","stop_name":"殷皇子馬路","stop_name_tc":"殷皇子馬路","sequence":28,"company":"MOB","lat":22.191507,"lng":113.541826},{"stop_id":"MOB_M69/1","stop_name":"葡京酒店","stop_name_tc":"葡京酒店","sequence":29,"company":"MOB","lat":22.189312,"lng":113.5448},{"stop_id":"MOB_M160/1","stop_name":"十月一號前地","stop_name_tc":"十月一號前地","sequence":30,"company":"MOB","lat":22.190966,"lng":113.546048},{"stop_id":"MOB_M158/1","stop_name":"北京街／假日酒店","stop_name_tc":"北京街／假日酒店","sequence":31,"company":"MOB","lat":22.191766,"lng":113.547511},{"stop_id":"MOB_M161","stop_name":"高美士／利澳","stop_name_tc":"高美士／利澳","sequence":32,"company":"MOB","lat":22.192725,"lng":113.550148},{"stop_id":"MOB_M70","stop_name":"澳門理工大學","stop_name_tc":"澳門理工大學","sequence":33,"company":"MOB","lat":22.193487,"lng":113.551982},{"stop_id":"MOB_M118","stop_name":"高美士／馬六甲街停車場","stop_name_tc":"高美士／馬六甲街停車場","sequence":34,"company":"MOB","lat":22.195757,"lng":113.553703},{"stop_id":"MOB_M53","stop_name":"水塘北角／勞工事務局","stop_name_tc":"水塘北角／勞工事務局","sequence":35,"company":"MOB","lat":22.204633,"lng":113.559874},{"stop_id":"MOB_M49","stop_name":"望信樓/慕拉士政府綜合服務中心-1","stop_name_tc":"望信樓/慕拉士政府綜合服務中心-1","sequence":36,"company":"MOB","lat":22.204908,"lng":113.554527},{"stop_id":"MOB_M35/2","stop_name":"慕拉士馬路／望善樓","stop_name_tc":"慕拉士馬路／望善樓","sequence":37,"company":"MOB","lat":22.206663,"lng":113.552342},{"stop_id":"MOB_M28/1","stop_name":"黑沙環馬路","stop_name_tc":"黑沙環馬路","sequence":38,"company":"MOB","lat":22.208102,"lng":113.549638},{"stop_id":"MOB_M278","stop_name":"巴波沙／李寶椿街","stop_name_tc":"巴波沙／李寶椿街","sequence":39,"company":"MOB","lat":22.211761,"lng":113.547411},{"stop_id":"MOB_M1/2","stop_name":"關閘總站","stop_name_tc":"關閘總站","sequence":40,"company":"MOB","lat":22.215022,"lng":113.549293}],"coords":[[22.215022,113.549293],[22.212199,113.549646],[22.208506,113.550282],[22.206678,113.552574],[22.205106,113.554533],[22.2048,113.559992],[22.197458,113.557311],[22.194888,113.554912],[22.194437,113.552902],[22.19308,113.551418],[22.193815,113.549825],[22.191823,113.546597],[22.191892,113.542863],[22.191554,113.541447],[22.195659,113.537268],[22.195367,113.536226],[22.193564,113.53536],[22.190398,113.533473],[22.188574,113.53219],[22.186988,113.531042],[22.183906,113.529907],[22.183906,113.529907],[22.184706,113.529042],[22.190589,113.533372],[22.192479,113.534596],[22.194447,113.535587],[22.194766,113.538349],[22.191507,113.541826],[22.189312,113.5448],[22.190966,113.546048],[22.191766,113.547511],[22.192725,113.550148],[22.193487,113.551982],[22.195757,113.553703],[22.204633,113.559874],[22.204908,113.554527],[22.206663,113.552342],[22.208102,113.549638],[22.211761,113.547411],[22.215022,113.549293]]}