{"route_key":"MOB_N3","direction":1,"company":"MOB","stops":[{"stop_id":"MOB_M172/8","stop_name":"亞馬喇前地","stop_name_tc":"亞馬喇前地","sequence":1,"company":"MOB","lat":22.189463,"lng":113.543264},{"stop_id":"MOB_M171/2","stop_name":"中區／殷皇子馬路","stop_name_tc":"中區／殷皇子馬路","sequence":2,"company":"MOB","lat":22.191579,"lng":113.541416},{"stop_id":"MOB_M142","stop_name":"新馬路／金碧坊","stop_name_tc":"新馬路／金碧坊","sequence":3,"company":"MOB","lat":22.195659,"lng":113.537268},{"stop_id":"MOB_M136/2","stop_name":"粵通碼頭","stop_name_tc":"粵通碼頭","sequence":4,"company":"MOB","lat":22.195332,"lng":113.536211},{"stop_id":"MOB_M139/1","stop_name":"司打口","stop_name_tc":"司打口","sequence":5,"company":"MOB","lat":22.193564,"lng":113.53536},{"stop_id":"MOB_M184","stop_name":"河邊新街／街市","stop_name_tc":"河邊新街／街市","sequence":6,"company":"MOB","lat":22.190398,"lng":113.533473},{"stop_id":"MOB_M188","stop_name":"河邊新街／下環","stop_name_tc":"河邊新街／下環","sequence":7,"company":"MOB","lat":22.188574,"lng":113.53219},{"stop_id":"MOB_M203/2","stop_name":"媽閣廟站","stop_name_tc":"媽閣廟站","sequence":8,"company":"MOB","lat":22.186969,"lng":113.531016},{"stop_id":"MOB_M277","stop_name":"西灣湖景大馬路／媽閣交通樞紐","stop_name_tc":"西灣湖景大馬路／媽閣交通樞紐","sequence":9,"company":"MOB","lat":22.184638,"lng":113.529259},{"stop_id":"MOB_T431","stop_name":"西灣大橋／海洋大馬路","stop_name_tc":"西灣大橋／海洋大馬路","sequence":10,"company":"MOB","lat":22.162808,"lng":113.541746},{"stop_id":"MOB_T403","stop_name":"史伯泰／麗景灣","stop_name_tc":"史伯泰／麗景灣","sequence":11,"company":"MOB","lat":22.162793,"lng":113.553639},{"stop_id":"MOB_T402","stop_name":"泉澧花園","stop_name_tc":"泉澧花園","sequence":12,"company":"MOB","lat":22.16133,"lng":113.556102},{"stop_id":"MOB_T309","stop_name":"泉亮花園","stop_name_tc":"泉亮花園","sequence":13,"company":"MOB","lat":22.159099,"lng":113.558215},{"stop_id":"MOB_T313","stop_name":"氹仔茵景園","stop_name_tc":"氹仔茵景園","sequence":14,"company":"MOB","lat":22.156042,"lng":113.559916},{"stop_id":"MOB_T315","stop_name":"氹仔CEM貨倉","stop_name_tc":"氹仔CEM貨倉","sequence":15,"company":"MOB","lat":22.154682,"lng":113.561424},{"stop_id":"MOB_T375","stop_name":"連貫公路／新濠天地","stop_name_tc":"連貫公路／新濠天地","sequence":16,"company":"MOB","lat":22.149145,"lng":113.564046},{"stop_id":"MOB_T380","stop_name":"連貫公路／倫敦人","stop_name_tc":"連貫公路／倫敦人","sequence":17,"company":"MOB","lat":22.146179,"lng":113.563922},{"stop_id":"MOB_T379","stop_name":"連貫公路／巴黎人花園","stop_name_tc":"連貫公路／巴黎人花園","sequence":18,"company":"MOB","lat":22.143732,"lng":113.563803},{"stop_id":"MOB_T359","stop_name":"蓮花圓形地","stop_name_tc":"蓮花圓形地","sequence":19,"company":"MOB","lat":22.140753,"lng":113.563638},{"stop_id":"MOB_T355/1","stop_name":"蓮花路停車場","stop_name_tc":"蓮花路停車場","sequence":20,"company":"MOB","lat":22.138865,"lng":113.560779},{"stop_id":"MOB_C688/1","stop_name":"和諧廣場／業興大廈","stop_name_tc":"和諧廣場／業興大廈","sequence":21,"company":"MOB","lat":22.129794,"lng":113.563057},{"stop_id":"MOB_C691","stop_name":"樂居大馬路／居雅大廈","stop_name_tc":"樂居大馬路／居雅大廈","sequence":22,"company":"MOB","lat":22.129372,"lng":113.560933},{"stop_id":"MOB_C652","stop_name":"安順大廈","stop_name_tc":"安順大廈","sequence":23,"company":"MOB","lat":22.128217,"lng":113.558752},{"stop_id":"MOB_C655","stop_name":"石排灣郊野公園","stop_name_tc":"石排灣郊野公園","sequence":24,"company":"MOB","lat":22.125357,"lng":113.55535},{"stop_id":"MOB_C657","stop_name":"路環警察訓練營-1","stop_name_tc":"路環警察訓練營-1","sequence":25,"company":"MOB","lat":22.120422,"lng":113.55354},{"stop_id":"MOB_C686","stop_name":"路環市區／衛生站","stop_name_tc":"路環市區／衛生站","sequence":26,"company":"MOB","lat":22.118148,"lng":113.551754},{"stop_id":"MOB_C656","stop_name":"路環警察訓練營-2","stop_name_tc":"路環警察訓練營-2","sequence":27,"company":"MOB","lat":22.120503,"lng":113.553338},{"stop_id":"MOB_C654/2","stop_name":"聯生圓形地總站","stop_name_tc":"聯生圓形地總站","sequence":28,"company":"MOB","lat":22.125713,"lng":113.554894},{"stop_id":"MOB_C653","stop_name":"金峰南岸／金譽峰","stop_name_tc":"金峰南岸／金譽峰","sequence":29,"company":"MOB","lat":22.128197,"lng":113.558511},{"stop_id":"MOB_C692","stop_name":"樂居大馬路／樂群樓","stop_name_tc":"樂居大馬路／樂群樓","sequence":30,"company":"MOB","lat":22.129327,"lng":113.561113},{"stop_id":"MOB_C689/1","stop_name":"和諧廣場／樂群樓","stop_name_tc":"和諧廣場／樂群樓","sequence":31,"company":"MOB","lat":22.129627,"lng":113.562833},{"stop_id":"MOB_T360","stop_name":"連貫公路／新濠影匯","stop_name_tc":"連貫公路／新濠影匯","sequence":32,"company":"MOB","lat":22.140694,"lng":113.563205},{"stop_id":"MOB_T376/1","stop_name":"連貫公路／巴黎人","stop_name_tc":"連貫公路／巴黎人","sequence":33,"company":"MOB","lat":22.144672,"lng":113.563406},{"stop_id":"MOB_T363/1","stop_name":"連貫公路／威尼斯人","stop_name_tc":"連貫公路／威尼斯人","sequence":34,"company":"MOB","lat":22.149648,"lng":113.563643},{"stop_id":"MOB_T306","stop_name":"氹仔嘉樂庇馬路","stop_name_tc":"氹仔嘉樂庇馬路","sequence":35,"company":"MOB","lat":22.153167,"lng":113.562982},{"stop_id":"MOB_T314/1","stop_name":"信虹花園","stop_name_tc":"信虹花園","sequence":36,"company":"MOB","lat":22.156439,"lng":113.559782},{"stop_id":"MOB_T311/2","stop_name":"百利寶花園","stop_name_tc":"百利寶花園","sequence":37,"company":"MOB","lat":22.158025,"lng":113.558999},{"stop_id":"MOB_T308/3","stop_name":"氹仔電訊","stop_name_tc":"氹仔電訊","sequence":38,"company":"MOB","lat":22.160832,"lng":113.556361},{"stop_id":"MOB_T300","stop_name":"史伯泰／盧廉若","stop_name_tc":"史伯泰／盧廉若","sequence":39,"company":"MOB","lat":22.162598,"lng":113.552628},{"stop_id":"MOB_T330/1","stop_name":"蘇利安圓形地","stop_name_tc":"蘇利安圓形地","sequence":40,"company":"MOB","lat":22.163819,"lng":113.549798},{"stop_id":"MOB_T430","stop_name":"海洋花園／玫瑰苑","stop_name_tc":"海洋花園／玫瑰苑","sequence":41,"company":"MOB","lat":22.162137,"lng":113.541664},{"stop_id":"MOB_M198","stop_name":"西灣湖景大馬路／媽閣碼頭","stop_name_tc":"西灣湖景大馬路／媽閣碼頭","sequence":42,"company":"MOB","lat":22.184706,"lng":113.529042},{"stop_id":"MOB_M183/2","stop_name":"河邊新街／凱泉灣","stop_name_tc":"河邊新街／凱泉灣","sequence":43,"company":"MOB","lat":22.190589,"lng":113.533372},{"stop_id":"MOB_M140/2","stop_name":"河邊新街／李道巷","stop_name_tc":"河邊新街／李道巷","sequence":44,"company":"MOB","lat":22.192479,"lng":113.534596},{"stop_id":"MOB_M137/1","stop_name":"內港客運碼頭","stop_name_tc":"內港客運碼頭","sequence":45,"company":"MOB","lat":22.194447,"lng":113.535587},{"stop_id":"MOB_M135/1","stop_name":"新馬路／大豐","stop_name_tc":"新馬路／大豐","sequence":46,"company":"MOB","lat":22.194766,"lng":113.538349},{"stop_id":"MOB_M170/2","stop_name":"殷皇子馬路","stop_name_tc":"殷皇子馬路","sequence":47,"company":"MOB","lat":22.191507,"lng":113.541826},{"stop_id":"MOB_M172/8","stop_name":"亞馬喇前地","stop_name_tc":"亞馬喇前地","sequence":48,"company":"MOB","lat":22.189463,"lng":113.543264}],"coords":[[22.189463,113.543264],[22.191579,113.541416],[22.195659,113.537268],[22.195332,113.536211],[22.193564,113.53536],[22.190398,113.533473],[22.188574,113.53219],[22.186969,113.531016],[22.184638,113.529259],[22.162808,113.541746],[22.162793,113.553639],[22.16133,113.556102],[22.159099,113.558215],[22.156042,113.559916],[22.154682,113.561424],[22.149145,113.564046],[22.146179,113.563922],[22.143732,113.563803],[22.140753,113.563638],[22.138865,113.560779],[22.129794,113.563057],[22.129372,113.560933],[22.128217,113.558752],[22.125357,113.55535],[22.120422,113.55354],[22.118148,113.551754],[22.120503,113.553338],[22.125713,113.554894],[22.128197,113.558511],[22.129327,113.561113],[22.129627,113.562833],[22.140694,113.563205],[22.144672,113.563406],[22.149648,113.563643],[22.153167,113.562982],[22.156439,113.559782],[22.158025,113.558999],[22.160832,113.556361],[22.162598,113.552628],[22.163819,113.549798],[22.162137,113.541664],[22.184706,113.529042],[22.190589,113.533372],[22.192479,113.534596],[22.194447,113.535587],[22.194766,113.538349],[22.191507,113.541826],[22.189463,113.543264]]}