{"route_key":"MOB_4","direction":1,"company":"MOB","stops":[{"stop_id":"MOB_M26/2","stop_name":"筷子基總站","stop_name_tc":"筷子基總站","sequence":1,"company":"MOB","lat":22.208402,"lng":113.54328},{"stop_id":"MOB_M10","stop_name":"台山街市","stop_name_tc":"台山街市","sequence":2,"company":"MOB","lat":22.21048,"lng":113.546172},{"stop_id":"MOB_M16/2","stop_name":"提督馬路／雅廉訪","stop_name_tc":"提督馬路／雅廉訪","sequence":3,"company":"MOB","lat":22.206407,"lng":113.545272},{"stop_id":"MOB_M101","stop_name":"幸運閣","stop_name_tc":"幸運閣","sequence":4,"company":"MOB","lat":22.204143,"lng":113.547621},{"stop_id":"MOB_M90","stop_name":"雅廉花園","stop_name_tc":"雅廉花園","sequence":5,"company":"MOB","lat":22.203222,"lng":113.54873},{"stop_id":"MOB_M73/2","stop_name":"得勝花園","stop_name_tc":"得勝花園","sequence":6,"company":"MOB","lat":22.199402,"lng":113.548901},{"stop_id":"MOB_M152","stop_name":"塔石廣場","stop_name_tc":"塔石廣場","sequence":7,"company":"MOB","lat":22.197631,"lng":113.547266},{"stop_id":"MOB_M146","stop_name":"水坑尾／方圓廣場","stop_name_tc":"水坑尾／方圓廣場","sequence":8,"company":"MOB","lat":22.194351,"lng":113.543838},{"stop_id":"MOB_M173","stop_name":"約翰四世大馬路","stop_name_tc":"約翰四世大馬路","sequence":9,"company":"MOB","lat":22.191892,"lng":113.542863},{"stop_id":"MOB_M134","stop_name":"新馬路／華僑","stop_name_tc":"新馬路／華僑","sequence":10,"company":"MOB","lat":22.193901,"lng":113.539096},{"stop_id":"MOB_M132/1","stop_name":"十六浦","stop_name_tc":"十六浦","sequence":11,"company":"MOB","lat":22.197419,"lng":113.536515},{"stop_id":"MOB_M129","stop_name":"沙梨頭街市","stop_name_tc":"沙梨頭街市","sequence":12,"company":"MOB","lat":22.20124,"lng":113.537528},{"stop_id":"MOB_M128","stop_name":"林茂／澳門遊艇會","stop_name_tc":"林茂／澳門遊艇會","sequence":13,"company":"MOB","lat":22.204453,"lng":113.538978},{"stop_id":"MOB_M130","stop_name":"林茂／運順新邨","stop_name_tc":"林茂／運順新邨","sequence":14,"company":"MOB","lat":22.205267,"lng":113.542304},{"stop_id":"MOB_M26/2","stop_name":"筷子基總站","stop_name_tc":"筷子基總站","sequence":15,"company":"MOB","lat":22.208402,"lng":113.54328}],"coords":[[22.208402,113.54328],[22.21048,113.546172],[22.206407,113.545272],[22.204143,113.547621],[22.203222,113.54873],[22.199402,113.548901],[22.197631,113.547266],[22.194351,113.543838],[22.191892,113.542863],[22.193901,113.539096],[22.197419,113.536515],[22.20124,113.537528],[22.204453,113.538978],[22.205267,113.542304],[22.208402,113.54328]]}