{"route_key":"MOB_37","direction":1,"company":"MOB","stops":[{"stop_id":"MOB_T440","stop_name":"松樹尾總站","stop_name_tc":"松樹尾總站","sequence":1,"company":"MOB","lat":22.154518,"lng":113.557272},{"stop_id":"MOB_T324/1","stop_name":"澳門運動場","stop_name_tc":"澳門運動場","sequence":2,"company":"MOB","lat":22.155422,"lng":113.554825},{"stop_id":"MOB_T369","stop_name":"基馬拉斯／氹仔中央公園","stop_name_tc":"基馬拉斯／氹仔中央公園","sequence":3,"company":"MOB","lat":22.15812,"lng":113.555471},{"stop_id":"MOB_T310/2","stop_name":"泉裕豪庭","stop_name_tc":"泉裕豪庭","sequence":4,"company":"MOB","lat":22.158741,"lng":113.558567},{"stop_id":"MOB_T408/1","stop_name":"湖畔大廈","stop_name_tc":"湖畔大廈","sequence":5,"company":"MOB","lat":22.158996,"lng":113.560997},{"stop_id":"MOB_T401","stop_name":"雞頸馬路／孝思-1","stop_name_tc":"雞頸馬路／孝思-1","sequence":6,"company":"MOB","lat":22.161824,"lng":113.565435},{"stop_id":"MOB_T410","stop_name":"雞頸馬路／孝思-2","stop_name_tc":"雞頸馬路／孝思-2","sequence":7,"company":"MOB","lat":22.160583,"lng":113.56882},{"stop_id":"MOB_T411","stop_name":"金皇冠中國大酒店","stop_name_tc":"金皇冠中國大酒店","sequence":8,"company":"MOB","lat":22.159042,"lng":113.573765},{"stop_id":"MOB_T406","stop_name":"機場圓形地／偉龍","stop_name_tc":"機場圓形地／偉龍","sequence":9,"company":"MOB","lat":22.154981,"lng":113.567813},{"stop_id":"MOB_T322","stop_name":"信安馬路","stop_name_tc":"信安馬路","sequence":10,"company":"MOB","lat":22.162208,"lng":113.569426},{"stop_id":"MOB_T342","stop_name":"高勵雅馬路","stop_name_tc":"高勵雅馬路","sequence":11,"company":"MOB","lat":22.162353,"lng":113.561944},{"stop_id":"MOB_T341","stop_name":"聖公會中學","stop_name_tc":"聖公會中學","sequence":12,"company":"MOB","lat":22.161369,"lng":113.559957},{"stop_id":"MOB_T303","stop_name":"澳門旅遊大學","stop_name_tc":"澳門旅遊大學","sequence":13,"company":"MOB","lat":22.163446,"lng":113.559281},{"stop_id":"MOB_T305","stop_name":"城市大學","stop_name_tc":"城市大學","sequence":14,"company":"MOB","lat":22.163772,"lng":113.556303},{"stop_id":"MOB_T307","stop_name":"宋玉生博士圓形地","stop_name_tc":"宋玉生博士圓形地","sequence":15,"company":"MOB","lat":22.16256,"lng":113.555056},{"stop_id":"MOB_T352","stop_name":"廣東大馬路／濠景","stop_name_tc":"廣東大馬路／濠景","sequence":16,"company":"MOB","lat":22.159446,"lng":113.552574},{"stop_id":"MOB_T332/2","stop_name":"南新花園","stop_name_tc":"南新花園","sequence":17,"company":"MOB","lat":22.157483,"lng":113.550094},{"stop_id":"MOB_T325/2","stop_name":"華寶花園","stop_name_tc":"華寶花園","sequence":18,"company":"MOB","lat":22.15574,"lng":113.554667},{"stop_id":"MOB_T339/2","stop_name":"花城公園","stop_name_tc":"花城公園","sequence":19,"company":"MOB","lat":22.156327,"lng":113.557401},{"stop_id":"MOB_T368","stop_name":"奧林匹克大馬路","stop_name_tc":"奧林匹克大馬路","sequence":20,"company":"MOB","lat":22.156421,"lng":113.558612},{"stop_id":"MOB_T440","stop_name":"松樹尾總站","stop_name_tc":"松樹尾總站","sequence":21,"company":"MOB","lat":22.154518,"lng":113.557272}],"coords":[[22.154518,113.557272],[22.155422,113.554825],[22.15812,113.555471],[22.158741,113.558567],[22.158996,113.560997],[22.161824,113.565435],[22.160583,113.56882],[22.159042,113.573765],[22.154981,113.567813],[22.162208,113.569426],[22.162353,113.561944],[22.161369,113.559957],[22.163446,113.559281],[22.163772,113.556303],[22.16256,113.555056],[22.159446,113.552574],[22.157483,113.550094],[22.15574,113.554667],[22.156327,113.557401],[22.156421,113.558612],[22.154518,113.557272]]}