{"route_key":"MOB_H2","direction":1,"company":"MOB","stops":[{"stop_id":"MOB_M213","stop_name":"俾若翰街／快富樓","stop_name_tc":"俾若翰街／快富樓","sequence":1,"company":"MOB","lat":22.207024,"lng":113.539053},{"stop_id":"MOB_M108/2","stop_name":"俾若翰街／綠楊花園","stop_name_tc":"俾若翰街／綠楊花園","sequence":2,"company":"MOB","lat":22.207692,"lng":113.541444},{"stop_id":"MOB_M6","stop_name":"青茂／鴨涌河變電站","stop_name_tc":"青茂／鴨涌河變電站","sequence":3,"company":"MOB","lat":22.212646,"lng":113.540482},{"stop_id":"MOB_M65","stop_name":"青茂／青洲坊","stop_name_tc":"青茂／青洲坊","sequence":4,"company":"MOB","lat":22.211846,"lng":113.542031},{"stop_id":"MOB_M10","stop_name":"台山街市","stop_name_tc":"台山街市","sequence":5,"company":"MOB","lat":22.21048,"lng":113.546172},{"stop_id":"MOB_M27","stop_name":"關閘馬路／三角花園","stop_name_tc":"關閘馬路／三角花園","sequence":6,"company":"MOB","lat":22.210617,"lng":113.548546},{"stop_id":"MOB_M29","stop_name":"慕拉士馬路","stop_name_tc":"慕拉士馬路","sequence":7,"company":"MOB","lat":22.208506,"lng":113.550282},{"stop_id":"MOB_M36","stop_name":"慕拉士巷","stop_name_tc":"慕拉士巷","sequence":8,"company":"MOB","lat":22.206678,"lng":113.552574},{"stop_id":"MOB_M48","stop_name":"慕拉士／飛通大廈","stop_name_tc":"慕拉士／飛通大廈","sequence":9,"company":"MOB","lat":22.205106,"lng":113.554533},{"stop_id":"MOB_M47","stop_name":"新雅馬路／母親會","stop_name_tc":"新雅馬路／母親會","sequence":10,"company":"MOB","lat":22.203213,"lng":113.553043},{"stop_id":"MOB_M61/2","stop_name":"二龍喉公園","stop_name_tc":"二龍喉公園","sequence":11,"company":"MOB","lat":22.200848,"lng":113.550648},{"stop_id":"MOB_M73/1","stop_name":"得勝花園","stop_name_tc":"得勝花園","sequence":12,"company":"MOB","lat":22.19925,"lng":113.548724},{"stop_id":"MOB_M270/2","stop_name":"塔石體育館","stop_name_tc":"塔石體育館","sequence":13,"company":"MOB","lat":22.196818,"lng":113.546598},{"stop_id":"MOB_M153","stop_name":"水坑尾／公共行政大樓","stop_name_tc":"水坑尾／公共行政大樓","sequence":14,"company":"MOB","lat":22.194048,"lng":113.543621},{"stop_id":"MOB_M168","stop_name":"八角亭","stop_name_tc":"八角亭","sequence":15,"company":"MOB","lat":22.192252,"lng":113.543995},{"stop_id":"MOB_M164","stop_name":"加思欄馬路","stop_name_tc":"加思欄馬路","sequence":16,"company":"MOB","lat":22.191394,"lng":113.544983},{"stop_id":"MOB_M151","stop_name":"山頂醫院急診大樓","stop_name_tc":"山頂醫院急診大樓","sequence":17,"company":"MOB","lat":22.194163,"lng":113.547285},{"stop_id":"MOB_M54","stop_name":"電力公司","stop_name_tc":"電力公司","sequence":18,"company":"MOB","lat":22.203783,"lng":113.554269},{"stop_id":"MOB_M56","stop_name":"望信樓/慕拉士政府綜合服務中心-2","stop_name_tc":"望信樓/慕拉士政府綜合服務中心-2","sequence":19,"company":"MOB","lat":22.204612,"lng":113.554209},{"stop_id":"MOB_M35/1","stop_name":"慕拉士馬路／望善樓","stop_name_tc":"慕拉士馬路／望善樓","sequence":20,"company":"MOB","lat":22.206786,"lng":113.552211},{"stop_id":"MOB_M28/2","stop_name":"黑沙環馬路","stop_name_tc":"黑沙環馬路","sequence":21,"company":"MOB","lat":22.208129,"lng":113.549634},{"stop_id":"MOB_M12","stop_name":"北區警司處","stop_name_tc":"北區警司處","sequence":22,"company":"MOB","lat":22.21033,"lng":113.546206},{"stop_id":"MOB_M21/2","stop_name":"青洲／嘉應花園","stop_name_tc":"青洲／嘉應花園","sequence":23,"company":"MOB","lat":22.210675,"lng":113.54326},{"stop_id":"MOB_M25","stop_name":"青洲／自來水公司","stop_name_tc":"青洲／自來水公司","sequence":24,"company":"MOB","lat":22.211165,"lng":113.540051},{"stop_id":"MOB_M213","stop_name":"俾若翰街／快富樓","stop_name_tc":"俾若翰街／快富樓","sequence":25,"company":"MOB","lat":22.207024,"lng":113.539053}],"coords":[[22.207024,113.539053],[22.207692,113.541444],[22.212646,113.540482],[22.211846,113.542031],[22.21048,113.546172],[22.210617,113.548546],[22.208506,113.550282],[22.206678,113.552574],[22.205106,113.554533],[22.203213,113.553043],[22.200848,113.550648],[22.19925,113.548724],[22.196818,113.546598],[22.194048,113.543621],[22.192252,113.543995],[22.191394,113.544983],[22.194163,113.547285],[22.203783,113.554269],[22.204612,113.554209],[22.206786,113.552211],[22.208129,113.549634],[22.21033,113.546206],[22.210675,113.54326],[22.211165,113.540051],[22.207024,113.539053]]}