{"route_key":"MOB_18B","direction":1,"company":"MOB","stops":[{"stop_id":"MOB_M282","stop_name":"永定街","stop_name_tc":"永定街","sequence":1,"company":"MOB","lat":22.212841,"lng":113.549707},{"stop_id":"MOB_M220","stop_name":"祐漢街市","stop_name_tc":"祐漢街市","sequence":2,"company":"MOB","lat":22.211589,"lng":113.551946},{"stop_id":"MOB_M219","stop_name":"勞動節大馬路","stop_name_tc":"勞動節大馬路","sequence":3,"company":"MOB","lat":22.209673,"lng":113.555283},{"stop_id":"MOB_M51","stop_name":"東北大馬路／廣華","stop_name_tc":"東北大馬路／廣華","sequence":4,"company":"MOB","lat":22.207707,"lng":113.5562},{"stop_id":"MOB_M233","stop_name":"東北大馬路／東華","stop_name_tc":"東北大馬路／東華","sequence":5,"company":"MOB","lat":22.206741,"lng":113.555264},{"stop_id":"MOB_M47","stop_name":"新雅馬路／母親會","stop_name_tc":"新雅馬路／母親會","sequence":6,"company":"MOB","lat":22.203213,"lng":113.553043},{"stop_id":"MOB_M61/2","stop_name":"二龍喉公園","stop_name_tc":"二龍喉公園","sequence":7,"company":"MOB","lat":22.200848,"lng":113.550648},{"stop_id":"MOB_M73/2","stop_name":"得勝花園","stop_name_tc":"得勝花園","sequence":8,"company":"MOB","lat":22.199402,"lng":113.548901},{"stop_id":"MOB_M270/2","stop_name":"塔石體育館","stop_name_tc":"塔石體育館","sequence":9,"company":"MOB","lat":22.196818,"lng":113.546598},{"stop_id":"MOB_M153","stop_name":"水坑尾／公共行政大樓","stop_name_tc":"水坑尾／公共行政大樓","sequence":10,"company":"MOB","lat":22.194048,"lng":113.543621},{"stop_id":"MOB_M173","stop_name":"約翰四世大馬路","stop_name_tc":"約翰四世大馬路","sequence":11,"company":"MOB","lat":22.191892,"lng":113.542863},{"stop_id":"MOB_M187","stop_name":"區華利前地","stop_name_tc":"區華利前地","sequence":12,"company":"MOB","lat":22.190342,"lng":113.539046},{"stop_id":"MOB_M199","stop_name":"南灣湖景大馬路","stop_name_tc":"南灣湖景大馬路","sequence":13,"company":"MOB","lat":22.18679,"lng":113.537989},{"stop_id":"MOB_M177","stop_name":"澳門旅遊塔","stop_name_tc":"澳門旅遊塔","sequence":14,"company":"MOB","lat":22.180363,"lng":113.537637},{"stop_id":"MOB_M3/2","stop_name":"媽閣交通樞紐","stop_name_tc":"媽閣交通樞紐","sequence":15,"company":"MOB","lat":22.183906,"lng":113.529907},{"stop_id":"MOB_M3/2","stop_name":"媽閣交通樞紐","stop_name_tc":"媽閣交通樞紐","sequence":16,"company":"MOB","lat":22.183906,"lng":113.529907},{"stop_id":"MOB_M198","stop_name":"西灣湖景大馬路／媽閣碼頭","stop_name_tc":"西灣湖景大馬路／媽閣碼頭","sequence":17,"company":"MOB","lat":22.184706,"lng":113.529042},{"stop_id":"MOB_M204","stop_name":"河邊新街／豐順新邨","stop_name_tc":"河邊新街／豐順新邨","sequence":18,"company":"MOB","lat":22.188139,"lng":113.531592},{"stop_id":"MOB_M183/2","stop_name":"河邊新街／凱泉灣","stop_name_tc":"河邊新街／凱泉灣","sequence":19,"company":"MOB","lat":22.190589,"lng":113.533372},{"stop_id":"MOB_M140/1","stop_name":"河邊新街／李道巷","stop_name_tc":"河邊新街／李道巷","sequence":20,"company":"MOB","lat":22.192483,"lng":113.5346},{"stop_id":"MOB_M137/1","stop_name":"內港客運碼頭","stop_name_tc":"內港客運碼頭","sequence":21,"company":"MOB","lat":22.194447,"lng":113.535587},{"stop_id":"MOB_M132/1","stop_name":"十六浦","stop_name_tc":"十六浦","sequence":22,"company":"MOB","lat":22.197419,"lng":113.536515},{"stop_id":"MOB_M200","stop_name":"沙欄仔","stop_name_tc":"沙欄仔","sequence":23,"company":"MOB","lat":22.198828,"lng":113.537422},{"stop_id":"MOB_M201","stop_name":"白鴿巢前地","stop_name_tc":"白鴿巢前地","sequence":24,"company":"MOB","lat":22.19923,"lng":113.539464},{"stop_id":"MOB_M121","stop_name":"連勝／鏡湖醫院","stop_name_tc":"連勝／鏡湖醫院","sequence":25,"company":"MOB","lat":22.199764,"lng":113.542407},{"stop_id":"MOB_M87","stop_name":"連勝馬路","stop_name_tc":"連勝馬路","sequence":26,"company":"MOB","lat":22.20134,"lng":113.544561},{"stop_id":"MOB_M96","stop_name":"連勝馬路／高士德","stop_name_tc":"連勝馬路／高士德","sequence":27,"company":"MOB","lat":22.20359,"lng":113.545025},{"stop_id":"MOB_M107","stop_name":"聖心學校","stop_name_tc":"聖心學校","sequence":28,"company":"MOB","lat":22.205912,"lng":113.546766},{"stop_id":"MOB_M104","stop_name":"觀音堂","stop_name_tc":"觀音堂","sequence":29,"company":"MOB","lat":22.204253,"lng":113.549748},{"stop_id":"MOB_M46/2","stop_name":"鮑思高球場","stop_name_tc":"鮑思高球場","sequence":30,"company":"MOB","lat":22.202439,"lng":113.55195},{"stop_id":"MOB_M54","stop_name":"電力公司","stop_name_tc":"電力公司","sequence":31,"company":"MOB","lat":22.203783,"lng":113.554269},{"stop_id":"MOB_M55","stop_name":"東北大馬路／南澳","stop_name_tc":"東北大馬路／南澳","sequence":32,"company":"MOB","lat":22.206188,"lng":113.554421},{"stop_id":"MOB_M206","stop_name":"黑沙環新街／建華","stop_name_tc":"黑沙環新街／建華","sequence":33,"company":"MOB","lat":22.208484,"lng":113.554357},{"stop_id":"MOB_M246","stop_name":"永華街","stop_name_tc":"永華街","sequence":34,"company":"MOB","lat":22.210424,"lng":113.552546},{"stop_id":"MOB_M282","stop_name":"永定街","stop_name_tc":"永定街","sequence":35,"company":"MOB","lat":22.212841,"lng":113.549707}],"coords":[[22.212841,113.549707],[22.211589,113.551946],[22.209673,113.555283],[22.207707,113.5562],[22.206741,113.555264],[22.203213,113.553043],[22.200848,113.550648],[22.199402,113.548901],[22.196818,113.546598],[22.194048,113.543621],[22.191892,113.542863],[22.190342,113.539046],[22.18679,113.537989],[22.180363,113.537637],[22.183906,113.529907],[22.183906,113.529907],[22.184706,113.529042],[22.188139,113.531592],[22.190589,113.533372],[22.192483,113.5346],[22.194447,113.535587],[22.197419,113.536515],[22.198828,113.537422],[22.19923,113.539464],[22.199764,113.542407],[22.20134,113.544561],[22.20359,113.545025],[22.205912,113.546766],[22.204253,113.549748],[22.202439,113.55195],[22.203783,113.554269],[22.206188,113.554421],[22.208484,113.554357],[22.210424,113.552546],[22.212841,113.549707]]}