{"route_key":"MOB_17","direction":1,"company":"MOB","stops":[{"stop_id":"MOB_M124","stop_name":"白鴿巢總站","stop_name_tc":"白鴿巢總站","sequence":1,"company":"MOB","lat":22.199265,"lng":113.539384},{"stop_id":"MOB_M121","stop_name":"連勝／鏡湖醫院","stop_name_tc":"連勝／鏡湖醫院","sequence":2,"company":"MOB","lat":22.199764,"lng":113.542407},{"stop_id":"MOB_M87","stop_name":"連勝馬路","stop_name_tc":"連勝馬路","sequence":3,"company":"MOB","lat":22.20134,"lng":113.544561},{"stop_id":"MOB_M96","stop_name":"連勝馬路／高士德","stop_name_tc":"連勝馬路／高士德","sequence":4,"company":"MOB","lat":22.20359,"lng":113.545025},{"stop_id":"MOB_M107","stop_name":"聖心學校","stop_name_tc":"聖心學校","sequence":5,"company":"MOB","lat":22.205912,"lng":113.546766},{"stop_id":"MOB_M105","stop_name":"望廈炮台","stop_name_tc":"望廈炮台","sequence":6,"company":"MOB","lat":22.205719,"lng":113.547965},{"stop_id":"MOB_M104","stop_name":"觀音堂","stop_name_tc":"觀音堂","sequence":7,"company":"MOB","lat":22.204253,"lng":113.549748},{"stop_id":"MOB_M46/1","stop_name":"鮑思高球場","stop_name_tc":"鮑思高球場","sequence":8,"company":"MOB","lat":22.202553,"lng":113.551795},{"stop_id":"MOB_M61/1","stop_name":"二龍喉公園","stop_name_tc":"二龍喉公園","sequence":9,"company":"MOB","lat":22.200858,"lng":113.55066},{"stop_id":"MOB_M72","stop_name":"陳瑞祺中學","stop_name_tc":"陳瑞祺中學","sequence":10,"company":"MOB","lat":22.198463,"lng":113.549036},{"stop_id":"MOB_M149","stop_name":"粵華中學","stop_name_tc":"粵華中學","sequence":11,"company":"MOB","lat":22.197112,"lng":113.54779},{"stop_id":"MOB_M145/1","stop_name":"愕斜巷／山頂醫院","stop_name_tc":"愕斜巷／山頂醫院","sequence":12,"company":"MOB","lat":22.194523,"lng":113.54586},{"stop_id":"MOB_M165","stop_name":"加思欄／公共衛生專科大樓","stop_name_tc":"加思欄／公共衛生專科大樓","sequence":13,"company":"MOB","lat":22.192675,"lng":113.545209},{"stop_id":"MOB_M202","stop_name":"南光大廈","stop_name_tc":"南光大廈","sequence":14,"company":"MOB","lat":22.192159,"lng":113.546695},{"stop_id":"MOB_M258","stop_name":"宋玉生廣場／東南亞","stop_name_tc":"宋玉生廣場／東南亞","sequence":15,"company":"MOB","lat":22.188533,"lng":113.551404},{"stop_id":"MOB_M259","stop_name":"孫逸仙大馬路／金沙","stop_name_tc":"孫逸仙大馬路／金沙","sequence":16,"company":"MOB","lat":22.189988,"lng":113.555669},{"stop_id":"MOB_M242","stop_name":"友誼馬路／海港街","stop_name_tc":"友誼馬路／海港街","sequence":17,"company":"MOB","lat":22.196117,"lng":113.555618},{"stop_id":"MOB_M53","stop_name":"水塘北角／勞工事務局","stop_name_tc":"水塘北角／勞工事務局","sequence":18,"company":"MOB","lat":22.204633,"lng":113.559874},{"stop_id":"MOB_M55","stop_name":"東北大馬路／南澳","stop_name_tc":"東北大馬路／南澳","sequence":19,"company":"MOB","lat":22.206188,"lng":113.554421},{"stop_id":"MOB_M206","stop_name":"黑沙環新街／建華","stop_name_tc":"黑沙環新街／建華","sequence":20,"company":"MOB","lat":22.208484,"lng":113.554357},{"stop_id":"MOB_M216","stop_name":"馬場東大馬路","stop_name_tc":"馬場東大馬路","sequence":21,"company":"MOB","lat":22.21292,"lng":113.554226},{"stop_id":"MOB_M1/6","stop_name":"關閘總站","stop_name_tc":"關閘總站","sequence":22,"company":"MOB","lat":22.214828,"lng":113.548982},{"stop_id":"MOB_M7/3","stop_name":"關閘馬路","stop_name_tc":"關閘馬路","sequence":23,"company":"MOB","lat":22.212254,"lng":113.548524},{"stop_id":"MOB_M16/2","stop_name":"提督馬路／雅廉訪","stop_name_tc":"提督馬路／雅廉訪","sequence":24,"company":"MOB","lat":22.206407,"lng":113.545272},{"stop_id":"MOB_M101","stop_name":"幸運閣","stop_name_tc":"幸運閣","sequence":25,"company":"MOB","lat":22.204143,"lng":113.547621},{"stop_id":"MOB_M83","stop_name":"賈伯樂／培正","stop_name_tc":"賈伯樂／培正","sequence":26,"company":"MOB","lat":22.200935,"lng":113.546955},{"stop_id":"MOB_M82","stop_name":"賈伯樂／沙嘉都喇","stop_name_tc":"賈伯樂／沙嘉都喇","sequence":27,"company":"MOB","lat":22.200196,"lng":113.546029},{"stop_id":"MOB_M123","stop_name":"東南小學","stop_name_tc":"東南小學","sequence":28,"company":"MOB","lat":22.198526,"lng":113.543968},{"stop_id":"MOB_M122","stop_name":"新勝街","stop_name_tc":"新勝街","sequence":29,"company":"MOB","lat":22.198506,"lng":113.542156},{"stop_id":"MOB_M124","stop_name":"白鴿巢總站","stop_name_tc":"白鴿巢總站","sequence":30,"company":"MOB","lat":22.199265,"lng":113.539384}],"coords":[[22.199265,113.539384],[22.199764,113.542407],[22.20134,113.544561],[22.20359,113.545025],[22.205912,113.546766],[22.205719,113.547965],[22.204253,113.549748],[22.202553,113.551795],[22.200858,113.55066],[22.198463,113.549036],[22.197112,113.54779],[22.194523,113.54586],[22.192675,113.545209],[22.192159,113.546695],[22.188533,113.551404],[22.189988,113.555669],[22.196117,113.555618],[22.204633,113.559874],[22.206188,113.554421],[22.208484,113.554357],[22.21292,113.554226],[22.214828,113.548982],[22.212254,113.548524],[22.206407,113.545272],[22.204143,113.547621],[22.200935,113.546955],[22.200196,113.546029],[22.198526,113.543968],[22.198506,113.542156],[22.199265,113.539384]]}