{"route_key":"MOB_73","direction":1,"company":"MOB","stops":[{"stop_id":"MOB_T550/4","stop_name":"澳門大學總站","stop_name_tc":"澳門大學總站","sequence":1,"company":"MOB","lat":22.135795,"lng":113.546277},{"stop_id":"MOB_T556","stop_name":"澳大／行政樓","stop_name_tc":"澳大／行政樓","sequence":2,"company":"MOB","lat":22.134015,"lng":113.543593},{"stop_id":"MOB_T557","stop_name":"大學北","stop_name_tc":"大學北","sequence":3,"company":"MOB","lat":22.134071,"lng":113.546583},{"stop_id":"MOB_T558","stop_name":"大學大馬路","stop_name_tc":"大學大馬路","sequence":4,"company":"MOB","lat":22.130464,"lng":113.546847},{"stop_id":"MOB_T551/1","stop_name":"澳大／研究生宿舍","stop_name_tc":"澳大／研究生宿舍","sequence":5,"company":"MOB","lat":22.124555,"lng":113.546177},{"stop_id":"MOB_T425","stop_name":"海濱圓形地／西堤馬路","stop_name_tc":"海濱圓形地／西堤馬路","sequence":6,"company":"MOB","lat":22.141114,"lng":113.552261},{"stop_id":"MOB_T423","stop_name":"蓮花海濱大馬路／百老匯","stop_name_tc":"蓮花海濱大馬路／百老匯","sequence":7,"company":"MOB","lat":22.145782,"lng":113.552355},{"stop_id":"MOB_T421","stop_name":"皇庭海景酒店","stop_name_tc":"皇庭海景酒店","sequence":8,"company":"MOB","lat":22.150648,"lng":113.550741},{"stop_id":"MOB_T431","stop_name":"西灣大橋／海洋大馬路","stop_name_tc":"西灣大橋／海洋大馬路","sequence":9,"company":"MOB","lat":22.162808,"lng":113.541746},{"stop_id":"MOB_M172/16","stop_name":"亞馬喇前地","stop_name_tc":"亞馬喇前地","sequence":10,"company":"MOB","lat":22.188914,"lng":113.543006},{"stop_id":"MOB_M247","stop_name":"海上居","stop_name_tc":"海上居","sequence":11,"company":"MOB","lat":22.213282,"lng":113.55587},{"stop_id":"MOB_M231","stop_name":"馬場東大馬路／黑沙環衛生中心","stop_name_tc":"馬場東大馬路／黑沙環衛生中心","sequence":12,"company":"MOB","lat":22.212166,"lng":113.554124},{"stop_id":"MOB_M219","stop_name":"勞動節大馬路","stop_name_tc":"勞動節大馬路","sequence":13,"company":"MOB","lat":22.209673,"lng":113.555283},{"stop_id":"MOB_M50","stop_name":"勞動節大馬路／廣華","stop_name_tc":"勞動節大馬路／廣華","sequence":14,"company":"MOB","lat":22.207744,"lng":113.557576},{"stop_id":"MOB_M172/7","stop_name":"亞馬喇前地","stop_name_tc":"亞馬喇前地","sequence":15,"company":"MOB","lat":22.189306,"lng":113.543263},{"stop_id":"MOB_T430","stop_name":"海洋花園／玫瑰苑","stop_name_tc":"海洋花園／玫瑰苑","sequence":16,"company":"MOB","lat":22.162137,"lng":113.541664},{"stop_id":"MOB_T328","stop_name":"東亞運大馬路／羅斯福","stop_name_tc":"東亞運大馬路／羅斯福","sequence":17,"company":"MOB","lat":22.154016,"lng":113.543886},{"stop_id":"MOB_T420","stop_name":"蓮花海濱大馬路／銀河-1","stop_name_tc":"蓮花海濱大馬路／銀河-1","sequence":18,"company":"MOB","lat":22.149264,"lng":113.551705},{"stop_id":"MOB_T422","stop_name":"蓮花海濱大馬路／銀河-2","stop_name_tc":"蓮花海濱大馬路／銀河-2","sequence":19,"company":"MOB","lat":22.145251,"lng":113.552677},{"stop_id":"MOB_T424","stop_name":"海濱圓形地／生態保護區","stop_name_tc":"海濱圓形地／生態保護區","sequence":20,"company":"MOB","lat":22.141315,"lng":113.552658},{"stop_id":"MOB_T559","stop_name":"大學南","stop_name_tc":"大學南","sequence":21,"company":"MOB","lat":22.124161,"lng":113.546166},{"stop_id":"MOB_T552","stop_name":"澳大／中央教學樓","stop_name_tc":"澳大／中央教學樓","sequence":22,"company":"MOB","lat":22.128052,"lng":113.546438},{"stop_id":"MOB_T553","stop_name":"澳大／大學展館","stop_name_tc":"澳大／大學展館","sequence":23,"company":"MOB","lat":22.131027,"lng":113.546369},{"stop_id":"MOB_T554","stop_name":"澳大／大學會堂","stop_name_tc":"澳大／大學會堂","sequence":24,"company":"MOB","lat":22.134082,"lng":113.54634},{"stop_id":"MOB_T555/2","stop_name":"澳大／綜合體育館","stop_name_tc":"澳大／綜合體育館","sequence":25,"company":"MOB","lat":22.133932,"lng":113.543201},{"stop_id":"MOB_T550/4","stop_name":"澳門大學總站","stop_name_tc":"澳門大學總站","sequence":26,"company":"MOB","lat":22.135795,"lng":113.546277}],"coords":[[22.135795,113.546277],[22.134015,113.543593],[22.134071,113.546583],[22.130464,113.546847],[22.124555,113.546177],[22.141114,113.552261],[22.145782,113.552355],[22.150648,113.550741],[22.162808,113.541746],[22.188914,113.543006],[22.213282,113.55587],[22.212166,113.554124],[22.209673,113.555283],[22.207744,113.557576],[22.189306,113.543263],[22.162137,113.541664],[22.154016,113.543886],[22.149264,113.551705],[22.145251,113.552677],[22.141315,113.552658],[22.124161,113.546166],[22.128052,113.546438],[22.131027,113.546369],[22.134082,113.54634],[22.133932,113.543201],[22.135795,113.546277]]}