{"route_key":"MOB_19","direction":1,"company":"MOB","stops":[{"stop_id":"MOB_M214","stop_name":"永寧廣場總站","stop_name_tc":"永寧廣場總站","sequence":1,"company":"MOB","lat":22.213159,"lng":113.552314},{"stop_id":"MOB_M220","stop_name":"祐漢街市","stop_name_tc":"祐漢街市","sequence":2,"company":"MOB","lat":22.211589,"lng":113.551946},{"stop_id":"MOB_M224","stop_name":"永康街／麗華","stop_name_tc":"永康街／麗華","sequence":3,"company":"MOB","lat":22.209964,"lng":113.551355},{"stop_id":"MOB_M33","stop_name":"俾利喇／望德樓","stop_name_tc":"俾利喇／望德樓","sequence":4,"company":"MOB","lat":22.207439,"lng":113.550948},{"stop_id":"MOB_M38","stop_name":"望賢樓","stop_name_tc":"望賢樓","sequence":5,"company":"MOB","lat":22.205784,"lng":113.549578},{"stop_id":"MOB_M103","stop_name":"聖方濟各老人院","stop_name_tc":"聖方濟各老人院","sequence":6,"company":"MOB","lat":22.204146,"lng":113.548223},{"stop_id":"MOB_M90","stop_name":"雅廉花園","stop_name_tc":"雅廉花園","sequence":7,"company":"MOB","lat":22.203222,"lng":113.54873},{"stop_id":"MOB_M61/2","stop_name":"二龍喉公園","stop_name_tc":"二龍喉公園","sequence":8,"company":"MOB","lat":22.200848,"lng":113.550648},{"stop_id":"MOB_M73/2","stop_name":"得勝花園","stop_name_tc":"得勝花園","sequence":9,"company":"MOB","lat":22.199402,"lng":113.548901},{"stop_id":"MOB_M152","stop_name":"塔石廣場","stop_name_tc":"塔石廣場","sequence":10,"company":"MOB","lat":22.197631,"lng":113.547266},{"stop_id":"MOB_M146","stop_name":"水坑尾／方圓廣場","stop_name_tc":"水坑尾／方圓廣場","sequence":11,"company":"MOB","lat":22.194351,"lng":113.543838},{"stop_id":"MOB_M173","stop_name":"約翰四世大馬路","stop_name_tc":"約翰四世大馬路","sequence":12,"company":"MOB","lat":22.191892,"lng":113.542863},{"stop_id":"MOB_M134","stop_name":"新馬路／華僑","stop_name_tc":"新馬路／華僑","sequence":13,"company":"MOB","lat":22.193901,"lng":113.539096},{"stop_id":"MOB_M132/2","stop_name":"十六浦","stop_name_tc":"十六浦","sequence":14,"company":"MOB","lat":22.197419,"lng":113.536515},{"stop_id":"MOB_M200","stop_name":"沙欄仔","stop_name_tc":"沙欄仔","sequence":15,"company":"MOB","lat":22.198828,"lng":113.537422},{"stop_id":"MOB_M201","stop_name":"白鴿巢前地","stop_name_tc":"白鴿巢前地","sequence":16,"company":"MOB","lat":22.19923,"lng":113.539464},{"stop_id":"MOB_M121","stop_name":"連勝／鏡湖醫院","stop_name_tc":"連勝／鏡湖醫院","sequence":17,"company":"MOB","lat":22.199764,"lng":113.542407},{"stop_id":"MOB_M87","stop_name":"連勝馬路","stop_name_tc":"連勝馬路","sequence":18,"company":"MOB","lat":22.20134,"lng":113.544561},{"stop_id":"MOB_M96","stop_name":"連勝馬路／高士德","stop_name_tc":"連勝馬路／高士德","sequence":19,"company":"MOB","lat":22.20359,"lng":113.545025},{"stop_id":"MOB_M107","stop_name":"聖心學校","stop_name_tc":"聖心學校","sequence":20,"company":"MOB","lat":22.205912,"lng":113.546766},{"stop_id":"MOB_M39","stop_name":"澳廣視","stop_name_tc":"澳廣視","sequence":21,"company":"MOB","lat":22.205941,"lng":113.549492},{"stop_id":"MOB_M28/1","stop_name":"黑沙環馬路","stop_name_tc":"黑沙環馬路","sequence":22,"company":"MOB","lat":22.208102,"lng":113.549638},{"stop_id":"MOB_M227","stop_name":"長壽大馬路／勝意樓","stop_name_tc":"長壽大馬路／勝意樓","sequence":23,"company":"MOB","lat":22.210645,"lng":113.55073},{"stop_id":"MOB_M244","stop_name":"中心街","stop_name_tc":"中心街","sequence":24,"company":"MOB","lat":22.212341,"lng":113.552123},{"stop_id":"MOB_M214/1","stop_name":"永寧廣場總站","stop_name_tc":"永寧廣場總站","sequence":25,"company":"MOB","lat":22.212421,"lng":113.554014}],"coords":[[22.213159,113.552314],[22.211589,113.551946],[22.209964,113.551355],[22.207439,113.550948],[22.205784,113.549578],[22.204146,113.548223],[22.203222,113.54873],[22.200848,113.550648],[22.199402,113.548901],[22.197631,113.547266],[22.194351,113.543838],[22.191892,113.542863],[22.193901,113.539096],[22.197419,113.536515],[22.198828,113.537422],[22.19923,113.539464],[22.199764,113.542407],[22.20134,113.544561],[22.20359,113.545025],[22.205912,113.546766],[22.205941,113.549492],[22.208102,113.549638],[22.210645,113.55073],[22.212341,113.552123],[22.212421,113.554014]]}