{"route_key":"MOB_1A","direction":1,"company":"MOB","stops":[{"stop_id":"MOB_M120/2","stop_name":"筷子基街／廣大中學","stop_name_tc":"筷子基街／廣大中學","sequence":1,"company":"MOB","lat":22.205933,"lng":113.539145},{"stop_id":"MOB_M108/1","stop_name":"俾若翰街／綠楊花園","stop_name_tc":"俾若翰街／綠楊花園","sequence":2,"company":"MOB","lat":22.20746,"lng":113.540587},{"stop_id":"MOB_M26/1","stop_name":"筷子基總站","stop_name_tc":"筷子基總站","sequence":3,"company":"MOB","lat":22.208266,"lng":113.543311},{"stop_id":"MOB_M10","stop_name":"台山街市","stop_name_tc":"台山街市","sequence":4,"company":"MOB","lat":22.21048,"lng":113.546172},{"stop_id":"MOB_M27","stop_name":"關閘馬路／三角花園","stop_name_tc":"關閘馬路／三角花園","sequence":5,"company":"MOB","lat":22.210617,"lng":113.548546},{"stop_id":"MOB_M29","stop_name":"慕拉士馬路","stop_name_tc":"慕拉士馬路","sequence":6,"company":"MOB","lat":22.208506,"lng":113.550282},{"stop_id":"MOB_M36","stop_name":"慕拉士巷","stop_name_tc":"慕拉士巷","sequence":7,"company":"MOB","lat":22.206678,"lng":113.552574},{"stop_id":"MOB_M48","stop_name":"慕拉士／飛通大廈","stop_name_tc":"慕拉士／飛通大廈","sequence":8,"company":"MOB","lat":22.205106,"lng":113.554533},{"stop_id":"MOB_M52","stop_name":"漁翁街／勞工事務局","stop_name_tc":"漁翁街／勞工事務局","sequence":9,"company":"MOB","lat":22.2048,"lng":113.559992},{"stop_id":"MOB_M239/1","stop_name":"外港碼頭","stop_name_tc":"外港碼頭","sequence":10,"company":"MOB","lat":22.197457,"lng":113.557437},{"stop_id":"MOB_M254","stop_name":"友誼馬路／行車天橋","stop_name_tc":"友誼馬路／行車天橋","sequence":11,"company":"MOB","lat":22.194888,"lng":113.554912},{"stop_id":"MOB_M241","stop_name":"金蓮花廣場","stop_name_tc":"金蓮花廣場","sequence":12,"company":"MOB","lat":22.194437,"lng":113.552902},{"stop_id":"MOB_M71","stop_name":"廈門街 ／澳門理工大學","stop_name_tc":"廈門街 ／澳門理工大學","sequence":13,"company":"MOB","lat":22.19308,"lng":113.551418},{"stop_id":"MOB_M156","stop_name":"高美士／南園大廈","stop_name_tc":"高美士／南園大廈","sequence":14,"company":"MOB","lat":22.192557,"lng":113.550059},{"stop_id":"MOB_M253","stop_name":"宋玉生廣場／建興龍","stop_name_tc":"宋玉生廣場／建興龍","sequence":15,"company":"MOB","lat":22.189125,"lng":113.551154},{"stop_id":"MOB_M250","stop_name":"新口岸／柏嘉街","stop_name_tc":"新口岸／柏嘉街","sequence":16,"company":"MOB","lat":22.186814,"lng":113.55014},{"stop_id":"MOB_M252","stop_name":"新口岸／科英布拉街","stop_name_tc":"新口岸／科英布拉街","sequence":17,"company":"MOB","lat":22.188557,"lng":113.550206},{"stop_id":"MOB_M252","stop_name":"新口岸／科英布拉街","stop_name_tc":"新口岸／科英布拉街","sequence":18,"company":"MOB","lat":22.188557,"lng":113.550206},{"stop_id":"MOB_M161","stop_name":"高美士／利澳","stop_name_tc":"高美士／利澳","sequence":19,"company":"MOB","lat":22.192725,"lng":113.550148},{"stop_id":"MOB_M70","stop_name":"澳門理工大學","stop_name_tc":"澳門理工大學","sequence":20,"company":"MOB","lat":22.193487,"lng":113.551982},{"stop_id":"MOB_M118","stop_name":"高美士／馬六甲街停車場","stop_name_tc":"高美士／馬六甲街停車場","sequence":21,"company":"MOB","lat":22.195757,"lng":113.553703},{"stop_id":"MOB_M53","stop_name":"水塘北角／勞工事務局","stop_name_tc":"水塘北角／勞工事務局","sequence":22,"company":"MOB","lat":22.204633,"lng":113.559874},{"stop_id":"MOB_M49","stop_name":"望信樓/慕拉士政府綜合服務中心-1","stop_name_tc":"望信樓/慕拉士政府綜合服務中心-1","sequence":23,"company":"MOB","lat":22.204908,"lng":113.554527},{"stop_id":"MOB_M35/1","stop_name":"慕拉士馬路／望善樓","stop_name_tc":"慕拉士馬路／望善樓","sequence":24,"company":"MOB","lat":22.206786,"lng":113.552211},{"stop_id":"MOB_M28/1","stop_name":"黑沙環馬路","stop_name_tc":"黑沙環馬路","sequence":25,"company":"MOB","lat":22.208102,"lng":113.549638},{"stop_id":"MOB_M11","stop_name":"拱形馬路／蓮峰廟","stop_name_tc":"拱形馬路／蓮峰廟","sequence":26,"company":"MOB","lat":22.210134,"lng":113.548058},{"stop_id":"MOB_M12","stop_name":"北區警司處","stop_name_tc":"北區警司處","sequence":27,"company":"MOB","lat":22.21033,"lng":113.546206},{"stop_id":"MOB_M21/1","stop_name":"青洲／嘉應花園","stop_name_tc":"青洲／嘉應花園","sequence":28,"company":"MOB","lat":22.210675,"lng":113.543271},{"stop_id":"MOB_M120/2","stop_name":"筷子基街／廣大中學","stop_name_tc":"筷子基街／廣大中學","sequence":29,"company":"MOB","lat":22.205933,"lng":113.539145}],"coords":[[22.205933,113.539145],[22.20746,113.540587],[22.208266,113.543311],[22.21048,113.546172],[22.210617,113.548546],[22.208506,113.550282],[22.206678,113.552574],[22.205106,113.554533],[22.2048,113.559992],[22.197457,113.557437],[22.194888,113.554912],[22.194437,113.552902],[22.19308,113.551418],[22.192557,113.550059],[22.189125,113.551154],[22.186814,113.55014],[22.188557,113.550206],[22.188557,113.550206],[22.192725,113.550148],[22.193487,113.551982],[22.195757,113.553703],[22.204633,113.559874],[22.204908,113.554527],[22.206786,113.552211],[22.208102,113.549638],[22.210134,113.548058],[22.21033,113.546206],[22.210675,113.543271],[22.205933,113.539145]]}