{"route_key":"MTR_ISL","direction":1,"company":"MTR","line":"ISL","stops":[{"stop_id":"MTR_KET","stop_name":"Kennedy Town","stop_name_tc":"堅尼地城","sequence":1,"company":"MTR","lat":22.281225,"lng":114.128381,"mtr_code":"KET","mtr_line":"ISL"},{"stop_id":"MTR_HKU","stop_name":"HKU","stop_name_tc":"香港大學","sequence":2,"company":"MTR","lat":22.283976,"lng":114.135507,"mtr_code":"HKU","mtr_line":"ISL"},{"stop_id":"MTR_SYP","stop_name":"Sai Ying Pun","stop_name_tc":"西營盤","sequence":3,"company":"MTR","lat":22.285435,"lng":114.142642,"mtr_code":"SYP","mtr_line":"ISL"},{"stop_id":"MTR_SHW","stop_name":"Sheung Wan","stop_name_tc":"上環","sequence":4,"company":"MTR","lat":22.28684,"lng":114.152161,"mtr_code":"SHW","mtr_line":"ISL"},{"stop_id":"MTR_CEN","stop_name":"Central","stop_name_tc":"中環","sequence":5,"company":"MTR","lat":22.281908,"lng":114.159198,"mtr_code":"CEN","mtr_line":"ISL"},{"stop_id":"MTR_ADM","stop_name":"Admiralty","stop_name_tc":"金鐘","sequence":6,"company":"MTR","lat":22.278628,"lng":114.165524,"mtr_code":"ADM","mtr_line":"ISL"},{"stop_id":"MTR_WAC","stop_name":"Wan Chai","stop_name_tc":"灣仔","sequence":7,"company":"MTR","lat":22.277584,"lng":114.17286,"mtr_code":"WAC","mtr_line":"ISL"},{"stop_id":"MTR_CAB","stop_name":"Causeway Bay","stop_name_tc":"銅鑼灣","sequence":8,"company":"MTR","lat":22.279389,"lng":114.18374,"mtr_code":"CAB","mtr_line":"ISL"},{"stop_id":"MTR_TIH","stop_name":"Tin Hau","stop_name_tc":"天后","sequence":9,"company":"MTR","lat":22.282277,"lng":114.191917,"mtr_code":"TIH","mtr_line":"ISL"},{"stop_id":"MTR_FOH","stop_name":"Fortress Hill","stop_name_tc":"炮台山","sequence":10,"company":"MTR","lat":22.287563,"lng":114.193315,"mtr_code":"FOH","mtr_line":"ISL"},{"stop_id":"MTR_NOP","stop_name":"North Point","stop_name_tc":"北角","sequence":11,"company":"MTR","lat":22.290909,"lng":114.200753,"mtr_code":"NOP","mtr_line":"ISL"},{"stop_id":"MTR_QUB","stop_name":"Quarry Bay","stop_name_tc":"鰂魚涌","sequence":12,"company":"MTR","lat":22.288165,"lng":114.208992,"mtr_code":"QUB","mtr_line":"ISL"},{"stop_id":"MTR_TAK","stop_name":"Tai Koo","stop_name_tc":"太古","sequence":13,"company":"MTR","lat":22.284637,"lng":114.216322,"mtr_code":"TAK","mtr_line":"ISL"},{"stop_id":"MTR_SWH","stop_name":"Sai Wan Ho","stop_name_tc":"西灣河","sequence":14,"company":"MTR","lat":22.28163,"lng":114.222289,"mtr_code":"SWH","mtr_line":"ISL"},{"stop_id":"MTR_SKW","stop_name":"Shau Kei Wan","stop_name_tc":"筲箕灣","sequence":15,"company":"MTR","lat":22.279173,"lng":114.228842,"mtr_code":"SKW","mtr_line":"ISL"},{"stop_id":"MTR_HFC","stop_name":"Heng Fa Chuen","stop_name_tc":"杏花邨","sequence":16,"company":"MTR","lat":22.276673,"lng":114.23972,"mtr_code":"HFC","mtr_line":"ISL"},{"stop_id":"MTR_CHW","stop_name":"Chai Wan","stop_name_tc":"柴灣","sequence":17,"company":"MTR","lat":22.264453,"lng":114.237044,"mtr_code":"CHW","mtr_line":"ISL"}],"coords":[[22.281225,114.128381],[22.283976,114.135507],[22.285435,114.142642],[22.28684,114.152161],[22.281908,114.159198],[22.278628,114.165524],[22.277584,114.17286],[22.279389,114.18374],[22.282277,114.191917],[22.287563,114.193315],[22.290909,114.200753],[22.288165,114.208992],[22.284637,114.216322],[22.28163,114.222289],[22.279173,114.228842],[22.276673,114.23972],[22.264453,114.237044]]}