{"route_key":"MTR_TWL","direction":2,"company":"MTR","line":"TWL","stops":[{"stop_id":"MTR_TSW","stop_name":"Tsuen Wan","stop_name_tc":"荃灣","sequence":1,"company":"MTR","lat":22.373738,"lng":114.117642,"mtr_code":"TSW","mtr_line":"TWL"},{"stop_id":"MTR_TWH","stop_name":"Tai Wo Hau","stop_name_tc":"大窩口","sequence":2,"company":"MTR","lat":22.370817,"lng":114.125006,"mtr_code":"TWH","mtr_line":"TWL"},{"stop_id":"MTR_KWH","stop_name":"Kwai Hing","stop_name_tc":"葵興","sequence":3,"company":"MTR","lat":22.36317,"lng":114.131199,"mtr_code":"KWH","mtr_line":"TWL"},{"stop_id":"MTR_KWF","stop_name":"Kwai Fong","stop_name_tc":"葵芳","sequence":4,"company":"MTR","lat":22.356844,"lng":114.127805,"mtr_code":"KWF","mtr_line":"TWL"},{"stop_id":"MTR_LAK","stop_name":"Lai King","stop_name_tc":"茘景","sequence":5,"company":"MTR","lat":22.348322,"lng":114.126059,"mtr_code":"LAK","mtr_line":"TWL"},{"stop_id":"MTR_MEF","stop_name":"Mei Foo","stop_name_tc":"美孚","sequence":6,"company":"MTR","lat":22.33889,"lng":114.136555,"mtr_code":"MEF","mtr_line":"TWL"},{"stop_id":"MTR_LCK","stop_name":"Lai Chi Kok","stop_name_tc":"茘枝角","sequence":7,"company":"MTR","lat":22.337396,"lng":114.148414,"mtr_code":"LCK","mtr_line":"TWL"},{"stop_id":"MTR_CSW","stop_name":"Cheung Sha Wan","stop_name_tc":"長沙灣","sequence":8,"company":"MTR","lat":22.335507,"lng":114.15616,"mtr_code":"CSW","mtr_line":"TWL"},{"stop_id":"MTR_SSP","stop_name":"Sham Shui Po","stop_name_tc":"深水埗","sequence":9,"company":"MTR","lat":22.330726,"lng":114.162337,"mtr_code":"SSP","mtr_line":"TWL"},{"stop_id":"MTR_PRE","stop_name":"Prince Edward","stop_name_tc":"太子","sequence":10,"company":"MTR","lat":22.324455,"lng":114.168302,"mtr_code":"PRE","mtr_line":"TWL"},{"stop_id":"MTR_MOK","stop_name":"Mong Kok","stop_name_tc":"旺角","sequence":11,"company":"MTR","lat":22.319308,"lng":114.169374,"mtr_code":"MOK","mtr_line":"TWL"},{"stop_id":"MTR_YMT","stop_name":"Yau Ma Tei","stop_name_tc":"油麻地","sequence":12,"company":"MTR","lat":22.312804,"lng":114.170581,"mtr_code":"YMT","mtr_line":"TWL"},{"stop_id":"MTR_JOR","stop_name":"Jordan","stop_name_tc":"佐敦","sequence":13,"company":"MTR","lat":22.304665,"lng":114.171746,"mtr_code":"JOR","mtr_line":"TWL"},{"stop_id":"MTR_TST","stop_name":"Tsim Sha Tsui","stop_name_tc":"尖沙咀","sequence":14,"company":"MTR","lat":22.29718,"lng":114.172205,"mtr_code":"TST","mtr_line":"TWL"},{"stop_id":"MTR_ADM","stop_name":"Admiralty","stop_name_tc":"金鐘","sequence":15,"company":"MTR","lat":22.278628,"lng":114.165524,"mtr_code":"ADM","mtr_line":"TWL"},{"stop_id":"MTR_CEN","stop_name":"Central","stop_name_tc":"中環","sequence":16,"company":"MTR","lat":22.281908,"lng":114.159198,"mtr_code":"CEN","mtr_line":"TWL"}],"coords":[[22.373738,114.117642],[22.370817,114.125006],[22.36317,114.131199],[22.356844,114.127805],[22.348322,114.126059],[22.33889,114.136555],[22.337396,114.148414],[22.335507,114.15616],[22.330726,114.162337],[22.324455,114.168302],[22.319308,114.169374],[22.312804,114.170581],[22.304665,114.171746],[22.29718,114.172205],[22.278628,114.165524],[22.281908,114.159198]]}